sdtname,Underweight Children,Poverty,Aganwadi,Immunitized childrens in anganwadi y < 6,SC Population,ST Population,Female literacy,ATM,Internet,Road,MSME,PDS,Mobile,Clean,Kuccha,Post,Panchayat,School,Library,Vocational,Pasture Land,Bank,Public Transport ,Electricity,Market,Water,Ground,Health,Drainage System,long,lat
AKKALKUWA,156.1914439,0.826693,109.2105858,111.6443991,0.420420977,95.29387797,42.96575476,32.60521117,47.37518712,103.2337824,90.5626691,139.20039,78.21042925,28.00683845,145.3599744,47.31230294,56.64357644,106.5685674,17.09160661,25.60522233,49.60731559,65.16557896,112.2346602,93.13814035,51.46632242,39.33299562,49.85413486,129.4988775,215.2983727,73.95485315,21.69781112
AKRANI,287.3315508,0.8940525,99.1481236,104.5268069,0.723395954,97.50554937,36.27001927,0,16.59086694,68.10001958,181.4515173,142.5427015,64.60330226,61.74081013,227.9040621,33.29110483,48.11712259,104.9811398,41.23350094,92.65889831,98.73406031,20.50590773,90.25537258,92.72084221,93.12187713,30.01649398,106.3954349,79.1183483,273.2534183,74.28429191,21.83867556
TALODE,69.63449198,0.759966,108.5994906,112.0265016,1.624265704,86.56098311,46.63762388,26.49602423,142.8172874,149.1032008,46.77590135,140.381037,63.90167909,64.08856362,175.021731,80.09889883,134.5253448,110.6568119,57.87158027,0,25.1952945,23.0241771,117.2273171,108.287115,10.45578971,145.1391763,280.4749223,126.4185214,30.42752287,74.2082881,21.61844484
SHAHADE,140.4463102,0.64,107.9039535,100.7064943,4.678188664,61.55673996,45.60409187,68.77383339,116.0454081,135.2431302,106.8433156,155.2562906,134.4851465,69.82607228,145.5108842,103.9534889,125.3674538,110.5187866,54.07672255,54.00882961,83.70895658,77.69087081,118.3677017,107.6953821,32.56721386,141.3785861,62.68963617,111.7434427,75.02961582,74.5366947,21.5671579
NANDURBAR,114.9767914,0.574468,109.4942497,106.7102458,3.332176328,59.97215386,47.73376118,138.9320751,88.10157337,106.1299006,142.3526348,134.2907247,63.9241086,100.0387028,158.8436563,106.2350655,117.980685,111.2972592,189.2100043,80.22415438,198.944663,85.21935679,118.4067842,106.1776257,158.0250036,105.6298908,168.2141264,101.1703155,51.61811916,74.28241009,21.3617215
NAWAPUR,175.2068449,0.69738,110.9349635,108.5111172,0.587537965,95.70508882,42.85934714,53.71907352,46.76016699,80.67598138,83.09377597,34.17724964,91.03988394,100.7652822,137.9857957,51.03862761,119.236577,112.8717083,40.2278058,30.13297506,75.89314318,80.02305454,119.3952841,107.6268277,21.19847609,136.9753462,133.1353268,87.08461101,103.5509829,73.93125951,21.20049667
SHIRPUR,48.98395722,0.574233,110.1803039,106.2021393,4.819947166,56.64191037,44.14903676,128.4246073,174.5615025,140.8326935,62.47393627,135.4262493,61.38743763,54.22759967,97.22197289,121.646797,141.4054215,108.8239868,86.02000197,50.42661132,58.61762393,115.3166693,115.7200211,107.5504679,108.1142882,127.5223444,143.4969486,147.941513,54.07612483,74.93803077,21.41902993
SINDKHEDE,180.1069519,0.261892,110.1481907,91.19826355,7.400412461,26.04073953,58.19733963,80.33369049,192.4488269,124.7465404,218.5087023,120.6275536,62.83603867,65.9125127,96.64261915,124.1248893,120.1221784,107.782055,81.88212953,122.6689907,139.1995348,69.80734545,118.9083884,105.2151401,42.26808607,126.3563233,70.86467451,119.706248,41.00162657,74.69000045,21.23867635
SAKRI,119.5721925,0.533891,109.9618498,98.37670796,3.45111872,55.94725493,47.00471995,99.36009087,84.0862652,122.8872534,76.66050498,104.2685239,118.0166145,90.86590942,157.4136652,146.8479812,131.6889671,108.7523921,89.21868625,130.0475766,134.374904,93.53571946,111.6450639,102.1128497,87.13158094,109.3979747,68.17098806,140.9395678,71.31450673,74.22910522,21.03060193
DHULE,88.44919786,0.37111,103.9137633,101.1221073,7.138244499,22.86925401,56.32991761,159.3115381,168.0087791,118.2206488,103.1240863,119.8814396,121.4962646,107.8075482,152.8900852,158.93041,123.7645482,103.4172254,215.7364606,125.109061,130.2819975,141.8974206,118.5073761,101.4335001,141.4509526,135.3132272,121.7955447,131.4787223,45.73757394,74.73520264,20.8851727
CHOPDA,80.7486631,0.4715835,102.5449242,99.77018676,6.528712838,37.77537995,52.18859861,63.45686476,89.22819195,57.5539181,84.6421072,82.83353115,86.86158287,55.98823879,118.863693,124.6917732,103.5124654,103.702858,64.68000148,249.1667854,112.6377872,82.71290512,110.0393091,102.8272604,166.9411803,119.7730527,105.7345937,106.3776112,54.65447911,75.32157461,21.2749092
YAWAL,116.4705882,0.468527,108.4697421,99.95307964,10.29894608,30.47996018,60.48075125,125.8561151,104.8706651,105.5009827,131.6655001,96.63911967,94.7970855,87.10961633,109.3847696,147.9604659,102.6498615,106.6475071,61.08666806,54.90897677,90.42311247,176.1989108,104.7030311,102.2711642,154.5133369,125.6604479,131.5808277,122.6221694,84.30959462,75.69597023,21.22519975
RAVER,364.8128342,0.412871,110.9349635,96.20231254,12.41893829,19.73424992,60.49690899,156.0199774,131.6300187,124.7830347,171.382779,116.6058799,81.35795641,92.66763633,65.06662859,166.6520478,127.2518944,105.7661227,90.87272935,40.84138768,126.6011492,176.2491243,117.3231346,104.7073756,168.2863675,107.5504343,97.87003716,120.714581,44.79258274,75.96005044,21.24907984
MUKTAINAGAR (EDLABAD),49.62566845,0.502669,105.6523462,97.70594945,13.55754876,17.65069382,57.84640751,89.89722508,129.9178999,70.41634677,52.901317,46.01862842,74.22299277,61.84637696,123.2674454,63.41162824,124.6462604,103.3827875,58.90500135,117.6620931,68.38722792,123.6864276,109.2680055,101.8414534,141.9000032,136.4805256,193.8467552,158.4299038,47.31660923,76.16076871,21.04942758
BODVAD,83.20855615,0.450331,104.5348694,103.0024066,13.26811839,7.240819617,62.34647486,96.81239624,232.5557417,104.7692609,34.18238945,163.5431256,141.9852797,137.5753553,168.6389993,87.80071603,121.4032016,101.0807416,42.2907702,380.13907,128.8836219,94.64265105,117.6732367,106.2046705,57.30577054,145.985926,21.3502545,37.45247257,34.74296482,75.9776205,20.88618126
BHUSAWAL,40.64171123,0.3575705,108.8015988,103.130531,11.41565063,12.03103525,66.85562836,121.0154953,198.5231942,80.82200125,148.1236876,137.5249011,34.70751281,130.2246323,102.9114682,160.9679794,121.4032016,107.6729639,52.86346275,332.6216862,128.8836219,157.7377517,115.319772,106.2046705,133.7134646,122.1514891,92.5177695,124.8415752,13.89718593,75.83147095,20.99826416
JALGAON,47.37967914,0.377453,107.1530897,104.5388096,7.391121017,20.27635036,61.05666022,185.9238064,113.9574699,95.51691057,114.4592131,101.0318069,95.08711155,111.5106776,134.8303576,155.6467239,124.229662,110.3697821,49.98000114,168.4707242,135.9973283,161.5616972,105.6919617,100.9039026,129.806253,146.121349,121.9552416,140.1630413,106.7556555,75.56178975,20.99354449
ERANDOL,69.30481283,0.4009675,107.52158,64.02548193,6.400885936,16.8630491,55.58744973,77.44991699,99.82880621,90.9995866,100.2683424,115.9669436,108.5398583,105.6051818,187.322163,117.0676214,120.8109909,98.44385269,135.3304646,152.055628,198.8490166,126.1902014,107.3179919,98.29138129,106.9707717,140.6231777,113.868024,124.8415752,55.58874371,75.36232459,20.87875685
DHARANGAON,24.38502674,0.4570325,108.4697421,105.3723215,8.478185295,20.11921316,59.59902795,111.8721023,160.5832059,119.3371772,52.66620003,96.63911967,18.23020875,57.8669388,121.183488,122.5958146,123.1798338,105.3778939,207.6946714,54.90897677,21.27602646,72.90989414,118.3008273,105.8807347,77.25666843,149.7597119,16.44760347,61.31108472,32.11794081,75.34855868,21.03987443
AMALNER,121.1764706,0.348884,106.612822,70.50126132,7.559354721,18.63230044,58.66783013,40.86237504,111.0845925,104.1083787,63.4815804,135.5457782,88.42835024,108.2533569,188.1449168,195.1760506,139.9770839,106.8453689,257.0400059,64.1793235,102.5808419,85.21935679,117.6121078,104.0681365,119.3250027,142.8518524,158.6018906,147.5400435,53.9643973,75.05771801,21.07826264
PAROLA,71.65775401,0.392664,106.153284,93.95590953,6.862566506,16.52543704,55.36500488,75.94765567,99.16380241,112.7172738,122.5851208,121.6319955,110.3241943,73.5784716,123.688972,127.9165604,123.4453076,100.4745602,132.7055203,213.0089616,156.8189882,94.28003553,112.8851533,99.88552848,77.06638107,134.8905847,111.659377,117.523276,68.52750302,75.10139181,20.84915059
BHADGAON,25.6684492,0.376789,109.0547099,109.9911496,11.10881241,15.48677143,57.71996231,106.6577247,229.960039,137.1893857,40.16913562,176.8987275,114.0160513,152.2951375,169.4199855,148.3187237,117.4384009,110.39179,46.59152649,167.5189122,81.13738906,92.68206882,120.3059261,108.287115,58.92457762,152.2980121,87.81347614,115.5313561,12.24836726,75.17450246,20.66920193
CHALISGAON,68.44919786,0.314849,108.6076565,111.7907537,10.01897632,13.58209053,53.52129105,184.8236655,204.1952854,131.709928,109.7979782,162.1915295,63.10456875,131.3191101,78.24578182,159.6376655,131.3631095,93.48969776,149.9400034,241.9066809,220.9433517,110.8944194,122.3801662,106.7726099,156.2884651,137.589704,72.46146982,111.2224943,10.10704431,74.95922029,20.48318072
PACHORA,88.44919786,0.3576545,107.4682459,104.6362962,7.501914642,11.57792592,55.7220659,98.32508993,142.8657987,104.5821729,175.896879,111.7389821,87.16318559,120.3400035,128.8070294,133.7589033,134.7279432,105.3382185,60.13218887,77.21574859,172.0366202,102.5295386,112.8192157,105.7491357,81.48164249,128.2963049,40.47652416,98.89793538,33.8743907,75.395026,20.64821176
JAMNER,40.64171123,0.453859,108.8286034,102.9707383,8.835567869,12.30297333,54.83066938,95.58692287,113.872617,79.79893795,84.37425243,110.0951996,79.95908015,100.8211714,134.6183748,115.5857527,106.2231162,110.6491992,52.19430499,78.19316313,181.7888337,86.52281741,120.0564922,102.8042231,91.15728057,151.982248,110.0844346,110.9351719,86.90139048,75.77485839,20.73590655
JALGAON (JAMOD),51.65775401,0.361021,70.67630737,95.70170078,14.71401747,16.85041333,63.43398687,50.74843351,76.11580532,60.2543952,43.00365124,57.67173271,80.71277906,118.5515404,86.19044599,58.29778726,52.15275222,67.26902088,8.867419558,39.85328959,61.76910909,35.27898104,99.68061926,99.55428313,104.1362927,123.6891947,116.3933229,60.20585644,101.9874129,76.51080203,21.05025861
SANGRAMPUR,56.79144385,0.405088,78.84633768,89.35753967,16.19423453,14.33489919,64.7527839,52.00665914,75.56538111,78.47180532,100.381342,92.64576762,86.78182017,120.811028,112.9104729,44.02129564,57.2633525,76.4915709,36.34909174,0,90.99457599,40.67287483,81.92391292,83.22893962,61.56818323,101.1486227,30.58438661,50.96837865,152.2947813,76.69806945,21.0792684
SHEGAON,135.5080214,0.350769,97.25805017,107.8206591,22.94077392,2.75289287,71.69815395,51.72169114,92.92905684,66.10099747,97.39639732,90.02000189,103.3877592,92.55475317,91.48027855,83.3906344,109.680674,100.1776974,45.18739829,67.69599876,39.34607634,67.41668294,103.9393193,97.90341903,74.83767294,78.52304213,35.48626776,111.1603067,98.99365318,76.63396196,20.80767195
NANDURA,254.2245989,0.376159,90.13465782,91.25715836,17.02672513,6.123906717,69.23571272,56.18576567,47.40247697,75.04900116,71.41677795,62.12514836,105.4747792,89.22394388,85.75603558,74.73513329,67.36397162,92.84046375,39.2700009,66.18492736,47.0162192,92.76482067,105.9899654,95.71807485,172.940629,114.8096313,69.38832713,52.16594393,135.4975628,76.37617621,20.83058635
MALKAPUR,37.64705882,0.276789,88.44814655,95.84512549,16.22290016,7.478744336,70.05010657,51.02274937,139.5027851,103.0702999,80.06685816,67.90857058,97.55625223,165.6625304,117.6635338,149.1030178,101.9562814,83.38270341,59.43567703,0,12.9381242,81.28467928,104.1885199,96.58039985,33.5574332,121.4267934,80.01536822,96.49916355,102.5386962,76.19802335,20.89091602
MOTALA,47.05882353,0.3363855,94.56750985,101.5603288,16.44557558,7.051705303,64.61444946,51.58037504,111.2101828,80.38035097,29.13908608,106.1446069,69.93227619,107.2960878,143.8412569,53.01627935,76.98739614,97.4063882,45.06393546,40.50662221,39.2385734,67.23248435,112.349005,102.0739199,199.4741849,124.4470189,142.5683661,95.78009378,121.4295098,76.14844833,20.67905886
KHAMGAON,53.90374332,0.396216,97.53342426,93.40669563,21.70560779,3.693923242,66.97589488,92.91391048,49.48804457,90.88708269,55.67064769,137.4999555,85.8899768,94.2153021,96.89297038,120.0139541,111.6058897,94.32629461,114.383761,82.91624009,57.83081019,80.73914452,107.5959851,101.0195234,143.3285268,118.5323339,64.57616126,100.2084054,77.6003939,76.54749357,20.60512385
MEHKAR,59.46524064,0.309593,90.13465782,104.1025269,22.04126096,5.683020424,63.19516825,78.66007194,55.3028898,107.0143165,62.95256723,108.7190096,126.1302568,76.43759884,119.8973994,80.84982601,86.61082066,94.98293599,96.2115022,77.21574859,113.6937664,64.93537447,104.0231413,95.42802008,65.18531399,93.92257793,94.83071374,60.86026792,97.10658667,76.61222813,20.25326639
CHIKHLI,134.7593583,0.257535,98.60885642,101.7100025,21.11268423,3.230855816,64.86297132,96.14008793,63.49591051,110.2571746,104.9209454,100.6657497,113.9388047,88.24854777,139.8108234,105.6860471,109.0654779,98.39502141,164.1704204,51.47716573,109.7045115,106.326929,105.3829209,96.25521332,72.42812666,100.0549799,95.08770755,112.7041999,117.9330639,76.32886389,20.35443705
BULDANA,33.5828877,0.320208,106.4070058,101.5172964,17.18692423,4.254184364,61.10143225,179.7944502,144.4646917,88.94696434,72.5503776,138.0558852,108.8231849,34.96759968,115.1431687,143.6467497,102.1261377,108.4353297,129.030003,25.21330566,87.9264359,117.1766156,113.6387258,99.4473505,131.7642887,142.2769958,101.9583582,122.5485667,22.12205107,76.11067174,20.4608502
DEOLGAON RAJA,71.97860963,0.204454,102.2681695,108.01335,23.53501264,1.086508046,60.80023067,58.99505396,211.9944109,145.9286134,46.28865237,147.978652,151.2537632,149.9452963,95.08613783,71.33808177,132.3220871,103.552825,77.31281427,77.21574859,74.79853054,42.7206411,120.4679761,108.287115,69.84140785,152.5031549,75.17068772,96.36209088,39.52012248,76.1524725,20.06915184
SINDKHED RAJA,6.203208556,0.261892,100.1359847,109.9277757,22.15251237,0.616129456,60.9013207,44.55083721,70.47447904,68.87486177,36.70321463,111.1777483,136.4845717,83.18569831,73.97064809,47.13784754,106.2834849,107.1868118,340.5716892,21.86640668,8.472753902,48.39152266,120.2141456,102.5373567,268.1031035,105.5675723,268.547154,183.8375055,51.16132164,76.28330744,20.02111912
LONAR,77.54010695,0.325773,102.3066885,98.48654477,19.15849071,3.8569822,57.79864034,97.88808953,55.71254084,89.93526395,78.99930005,79.45883173,94.7970855,106.4568948,96.24767599,88.77627954,90.67404434,102.8386675,48.86933445,109.8179535,90.42311247,78.98571865,101.9834718,97.45840349,143.4766699,79.18329594,69.90231474,100.9829631,192.7076449,76.51030725,19.98274671
TELHARA,18.71657754,0.3986545,93.70234779,95.48253461,17.99924689,6.65310194,70.17205032,109.9713627,74.45308142,96.71902919,97.7903957,108.8362901,101.9475751,105.1518739,126.3342359,118.2042002,103.1481618,92.07777137,112.0910705,23.98935878,120.8395678,116.7974032,109.3104397,100.9277965,110.9024297,121.833311,132.9381542,81.93485908,94.71674292,76.87120595,21.04461996
AKOT,98.18181818,0.414077,85.28870848,100.4140949,19.65095793,13.74192004,72.19845266,54.13166241,20.61469727,97.0765256,19.11273388,102.8739016,113.7917869,110.4509609,84.2674521,65.45716464,69.53700297,79.86276452,56.16032386,79.70657919,23.16341591,108.7768582,99.35164031,100.1364719,186.9112946,112.4447225,133.3051733,90.74505898,108.7865737,77.05789346,21.05858381
BALAPUR,36.47058824,0.352941,96.06739105,108.9928688,27.59325498,2.755182367,71.23059867,77.84914337,79.05842666,113.9346425,54.97373973,109.5907543,108.2536107,97.93531952,113.1399854,105.9039564,87.30529459,98.95129523,51.01051663,101.8929466,49.35160778,107.109896,108.502003,101.5889429,148.4829931,73.46903747,91.56397807,73.61791859,100.5755105,76.83387361,20.73287245
AKOLA,60.85561497,0.416721,92.4458029,99.30246939,26.24273697,6.78210493,73.07182145,166.3615315,89.84070987,102.8768769,112.369694,96.63911967,89.57947403,92.65764454,92.63916822,126.8232565,82.29687174,91.28080963,154.823107,56.80238977,96.29236115,135.1347176,105.5001433,101.4413778,159.841383,95.26925786,89.32750159,113.7923783,72.68068502,77.09354279,20.73255317
MURTIJAPUR,64.49197861,0.297981,88.33710054,97.51095355,32.23623981,4.532023371,74.35167372,31.07558398,81.93020712,84.55452166,65.83275004,73.9706842,113.43241,123.7273655,98.09367002,79.85168001,76.98739614,87.46224125,108.598521,30.5049871,153.6601911,74.26007737,95.18457372,90.90770147,125.6953732,82.24351994,47.97217678,86.15609945,140.515991,77.41803035,20.74423599
PATUR,146.4171123,0.424521,94.58665307,93.78680388,20.21252178,12.91622391,66.71179884,52.99204847,34.15196002,85.201829,28.06554081,34.5866323,94.98898244,83.31318322,135.1630937,48.0593393,84.28093893,92.61494036,40.51010619,0,75.58588349,74.82857556,109.4980435,99.16820004,282.3063222,96.21585846,249.311042,184.502707,87.47912826,76.84995359,20.42979301
BARSHITAKLI,123.5294118,0.349784,84.87641501,104.9298285,17.36373801,8.08767901,67.06747752,33.78687654,29.69282674,79.39561247,57.65888511,62.2641308,127.7338116,107.1369152,151.6101289,63.83720964,74.40392647,90.49189239,77.48577358,66.33299208,93.17186086,66.05930006,100.2038945,92.29841344,123.3291975,73.82276934,69.54355828,50.10420268,118.8256032,77.1529064,20.52563498
MALEGAON,87.27272727,0.243124,104.4637573,101.2036835,19.86183622,13.64922693,64.19750374,73.41606715,88.48462368,66.15430473,64.18693129,78.92194773,124.4211747,125.9546688,161.6553271,69.75279107,116.7642175,106.6475071,82.46700189,82.36346516,71.80658932,68.35302576,111.1619843,105.5799371,49.66500114,80.04398394,40.09103345,67.62251991,102.3759363,77.01220283,20.26049347
MANGRULPIR,36.04278075,0.3109,91.35820521,99.83485463,22.10573756,6.882301959,66.88309814,64.77888278,65.0622233,78.97313194,93.66644951,85.26981148,91.68722636,121.1864568,131.2376576,50.35629302,81.5160665,92.42037115,145.5300033,90.84205716,126.7175106,188.9760124,107.9824996,94.75122561,182.5919159,72.90533642,141.4977651,71.6003152,114.2430431,77.32755921,20.30378649
KARANJA,56.89839572,0.3046525,81.10371279,100.6108875,19.91406073,3.497878931,70.09328648,30.14517727,68.88024598,71.77008051,60.31383687,50.92360797,109.0537637,108.9441786,126.4603555,45.56524185,76.52639377,78.68560723,19.7525753,29.59166413,63.06367126,68.76232531,93.80036692,85.59221065,71.37485193,94.62414173,44.31988958,64.1401626,114.6725881,77.51195603,20.54407293
MANORA,54.01069519,0.403715,92.03493266,106.1104649,12.53262038,14.148928,62.56746184,37.29070077,8.739222092,81.86415052,54.86062504,97.35496501,143.4109755,89.65885065,167.526968,70.45736472,100.3687535,88.87292256,48.86933445,54.90897677,67.3740838,64.80879479,105.156291,93.04670621,80.93555741,88.36396794,52.08407765,74.53504417,88.32433723,77.53226164,20.20134482
WASHIM,74.86631016,0.301395,99.75547103,102.1968237,23.42973173,3.245456756,62.4506257,48.78143996,27.43709262,76.0186265,45.92982561,59.93123701,109.3812525,146.4468736,151.3555531,85.53196368,95.48824328,102.7500899,85.23721125,76.61717689,44.53121818,50.867368,110.9959647,94.85615499,80.85000185,76.86143994,111.8819538,113.2284054,114.8403116,77.18457041,20.07953337
RISOD,67.59358289,0.273837,105.3321875,89.63801244,23.45899002,5.023384023,62.54466273,63.5636945,134.0676116,69.18097227,65.83275004,95.66296695,144.1843783,106.4348375,120.4043211,111.4507406,118.2028708,108.4942172,161.0466703,24.95862581,82.20282952,93.89910609,114.9631864,106.0994965,135.4500031,68.85503995,123.357026,88.52402607,94.89391603,76.79330554,20.03743687
DHARNI,148.0213904,0.7490595,104.4935785,98.53695573,3.77196514,82.11646853,55.51690519,16.23949872,13.32026593,79.33495368,51.60438149,89.78085957,105.852825,49.35534955,213.1748579,54.00216083,90.39810386,106.8932387,10.64090347,95.64789502,55.59219818,17.63949052,97.90413297,99.20496986,80.10484054,127.9371065,40.58844081,134.0234717,142.1995928,76.93286249,21.48387833
CHIKHALDARA,122.9946524,0.7597085,93.04222743,101.1791867,6.412275531,80.2467072,56.4955225,47.36520461,9.514475665,35.1483972,14.33455041,39.48695213,58.21905375,21.48592693,170.7190751,32.72858232,85.26561078,91.53501471,32.51387171,26.56885973,20.58970303,70.55796207,92.77206149,95.4789616,371.1524278,49.14250835,194.9836863,97.72544814,112.6718085,77.24592166,21.45841437
ANJANGAON SURJI,109.8395722,0.306383,89.09737224,102.8263146,25.88616859,3.443261292,75.44287371,89.18937291,74.31779417,80.89271167,46.65312995,83.70317452,126.6066466,133.9881426,101.0027753,119.8329983,80.01839599,80.97532877,138.5272473,38.9118733,143.2362412,150.6995843,93.47146553,98.90791605,121.2295303,125.6468938,90.33231038,102.2324711,99.57826137,77.30367343,21.119863
ACHALPUR,52.62032086,0.391304,77.84909717,92.35461948,19.86803694,13.9661897,73.88158703,73.60006731,65.54416569,60.07821276,32.91637502,80.2500292,58.52856493,106.968517,112.716194,60.07417413,58.52842982,67.48996375,61.08666806,72.24865365,47.59111183,83.14286174,78.72408353,89.28937551,136.5061435,108.7184841,86.56633404,85.41791989,122.5553005,77.46757355,21.23356907
CHANDURBAZAR,122.9946524,0.375839,64.98557032,93.97703755,19.42489817,8.254694393,74.91396192,59.57685922,59.33880089,75.52597268,73.62360804,82.34339191,73.78380346,139.2083619,143.3439837,67.53901233,62.86544774,60.1751572,87.83467656,73.1036673,84.97821221,90.59809331,76.03501451,71.76424188,94.04023884,95.33774762,72.26239985,101.7938998,145.3859451,77.69060744,21.26527022
MORSHI,79.2513369,0.3695165,57.47233047,93.58967149,17.64507306,11.32751411,74.1161096,60.65354945,47.97359115,66.57626699,49.96943678,66.36662435,38.54700766,87.47170458,89.96121273,87.0954894,60.29133433,57.13259308,66.23855573,14.88496358,66.32737166,131.7648689,64.13900277,58.70988162,128.6503041,76.5286438,75.79769068,72.34794902,189.3700878,77.95553179,21.27727799
WARUD,118.1818182,0.45,76.61695319,93.8778243,15.42211291,18.12505547,70.78822114,90.5439677,67.90186949,95.18604997,102.3012519,77.86749211,86.16724568,138.3625168,110.6586277,93.06454793,76.43352998,76.450808,114.7023048,159.986587,99.87487243,86.54771607,83.64112079,84.13675121,85.75251995,106.9977599,63.89716455,60.71432004,124.7747341,78.2808667,21.45992672
TEOSA,183.9572193,0.324966,80.78959296,103.281905,17.31724085,3.806049958,74.42111672,123.1201126,102.590868,77.8285938,70.84176363,79.83231625,64.20203951,89.95453061,86.39271339,70.30419653,80.33467423,80.73083804,89.63804553,134.2882584,114.4742728,83.21237918,83.80380947,78.86126852,151.1543513,116.1928799,84.47274607,91.73141832,164.9535547,78.07597301,20.9754076
AMRAVATI,220.4278075,0.325112,75.67656423,106.014276,23.74247894,6.2447795,73.9961197,87.80659194,43.44206331,91.70500975,98.74912506,98.88654106,96.66250221,159.7407354,92.49181715,76.6838295,62.06735813,72.63368422,127.8558169,95.77147112,96.48430606,76.30105201,88.22756169,88.14067499,111.6500026,104.4835199,60.24412898,85.55035078,126.0442445,77.81152843,20.99479964
BHATKULI,100.3208556,0.388489,85.40231315,103.3401304,24.9776764,8.220389182,74.66693288,59.93148338,121.7248791,77.8285938,77.58859827,99.70702824,92.45320152,112.142741,91.22974286,93.60764169,61.10110805,79.804257,61.08666806,39.2206977,102.5808419,82.45761837,93.2420314,90.23926249,114.3083359,114.3485485,49.93022481,87.58726389,103.2362383,77.60200542,20.97346759
DARYAPUR,153.4759358,0.35528,93.92493574,99.59318557,29.87777601,8.122050823,74.84446288,100.6848921,131.743773,90.28116881,71.09937005,82.46538212,103.9121899,112.9126722,92.67744442,121.7503262,95.46437122,89.1268452,124.6168028,131.7815443,86.16790718,174.9837459,95.45652965,96.73648939,148.9950034,130.1360255,88.81705872,90.88466677,154.1661159,77.32378984,20.95358083
NANDGAON-KHANDESHWAR,85.6684492,0.3915175,86.19946486,105.388212,23.49125645,4.311686311,72.49204263,59.52654093,79.71587719,114.6394152,86.07187252,100.5569218,80.9273456,148.2413349,136.4392632,97.68818405,79.06813658,81.0665172,107.7271646,66.78118797,145.5538973,73.89516298,99.2271618,98.04373924,147.6527061,117.2396626,32.50624334,54.8290702,68.35913078,77.76129507,20.69168594
CHANDUR RAILWAY,122.9946524,0.3511045,96.62077464,110.6939417,21.39995592,5.368788166,72.19547424,54.13166241,234.6903997,145.6147884,12.74182259,151.7130266,151.7223825,163.9598113,117.4956135,102.2768197,16.55642928,90.92068576,65.02774342,26.56885973,25.73712879,70.55796207,107.9050928,103.6296047,149.5290357,146.5946012,19.89629452,52.35291864,42.73758253,77.96837945,20.77194575
DHAMANGAON RAILWAY,110.6951872,0.3420165,81.48320326,95.84130732,17.31511944,8.038907166,72.48182187,100.2393837,101.7964697,96.42480648,107.4879857,83.81091795,82.76192114,125.8689628,103.510144,104.3766624,83.11913566,81.90690335,107.0368166,153.0648468,156.7459472,87.10474079,87.72383596,78.58003034,109.8783211,105.5675723,75.32420172,100.5361358,118.3105563,78.15943115,20.75159265
ASHTI,113.5828877,0.3115975,52.89614152,99.58449154,12.54916356,11.22895799,72.94423249,58.34389442,56.64578558,59.78885352,72.59041644,51.1995336,68.45383021,68.8044544,170.4449617,47.8736796,46.90622811,46.9168314,18.20463618,196.3632282,57.06483919,94.15516131,56.73252738,76.01612045,95.38311476,77.97491279,61.27004603,70.93647122,210.5745788,78.18561193,21.22217478
KARANJA,97.96791444,0.3046525,81.10371279,100.6108875,7.907187548,14.13300612,70.31543245,52.88072063,57.00690041,95.48718231,119.4947396,90.95446558,104.7854016,102.2873709,166.1975468,35.16947449,65.98919669,77.77714352,9.240000211,83.05559512,72.41000603,55.14193674,97.69845202,94.63747864,100.1647082,119.7730527,77.74602479,73.6460385,121.454398,78.43892352,21.10372483
ARVI,102.459893,0.283926,59.53848957,96.47087892,13.59939511,19.20821257,70.23308903,57.73216289,60.88391538,72.83042723,73.38237734,64.72161226,92.57266553,143.0744496,150.236075,54.10349933,55.09189816,60.27750646,50.43853326,68.00653087,61.48576455,67.72593378,80.83827493,83.45062072,79.73738714,78.88323958,62.81022884,61.04638495,170.7186418,78.33481755,20.94098882
SELOO,93.36898396,0.2119125,67.97171172,104.3187592,11.01216724,14.78563906,69.49787923,58.19935959,42.6226511,77.37871754,71.92132808,74.85342218,82.51013556,146.5577319,105.1806754,46.18419167,50.73157896,61.42579371,12.71167659,14.28268182,44.2738123,66.37750478,68.61778106,66.97526765,57.41618628,89.55135254,64.17417538,65.66811182,146.2016092,78.71353757,20.86123152
WARDHA,140.2139037,0.207514,75.12684235,94.1548171,12.8760164,11.95590651,71.76504053,183.2082688,102.6720317,101.4727236,129.3738537,72.17351976,85.15122821,125.4347318,61.01158429,69.83305895,76.01287214,75.21252759,69.59240665,93.83179575,109.0733002,128.0537698,86.75049757,87.72627037,110.0174076,106.8778389,77.29332642,104.7721068,153.2208727,78.59005083,20.71908445
DEOLI,105.3475936,0.196733,67.75222601,109.9608407,20.55520138,13.47502438,72.33911487,50.68031481,53.44708813,78.35093336,43.74122318,67.45280836,105.7107407,160.7148684,107.7035069,58.73023287,65.10343566,65.18483774,66.41637736,49.74974406,115.6616204,55.04941672,79.67030955,86.48434016,89.99698192,93.57815832,29.80438212,71.88863862,150.3507632,78.4252384,20.61450621
HINGANGHAT,94.01069519,0.190272,66.44233106,88.61257795,12.55195889,12.37930809,69.17766394,47.11191475,63.09064077,87.40109464,72.87368588,43.41008584,94.7580904,153.7232012,106.7998983,42.72655165,55.99083356,65.38168406,29.40000067,52.85356053,94.71813921,55.55967869,77.87828759,79.91241641,79.67647241,85.3323824,29.68484583,46.86566086,245.3930905,78.76151064,20.47991096
SAMUDRAPUR,126.631016,0.2146755,78.3669008,92.49859808,13.11967053,16.94663272,68.11160319,40.41251403,43.29522871,64.26214167,69.3055786,60.28862512,107.6251315,119.7549116,93.95253833,27.92438675,46.61622152,78.09868228,10.08770665,11.33442181,43.91840325,85.2845092,61.75146002,77.98659198,45.56422123,83.85785829,25.46360629,58.06851251,177.348492,79.00976577,20.61707557
NARKHED,65.6684492,0.423945,80.67997344,109.3712733,15.66231367,11.74885384,69.58313686,40.86237504,45.96603828,84.90392051,159.6657931,69.02794262,94.8207611,181.8589188,157.8610021,61.76457297,69.98854195,81.61799011,49.98000114,64.1793235,267.331891,46.16048493,93.77181567,95.63017947,83.85000192,126.755869,40.85200212,56.90830247,86.81229131,78.49105185,21.38438066
KATOL,76.89839572,0.4346665,87.67440662,105.9966335,15.63202562,14.89866518,68.74148037,54.13166241,122.1024377,121.345657,109.8982198,80.01303457,72.33276375,149.2171051,117.2782712,47.04733708,54.63621662,84.16306722,67.98354994,39.85328959,87.50623788,76.43779224,102.6414297,102.4652271,48.06290432,134.933667,71.62666026,75.03918339,104.9013389,78.63673296,21.22983699
KALAMESHWAR,141.8181818,0.292049,82.40883001,98.53352656,15.93784008,9.383666639,69.28982264,71.91778006,101.1252842,114.1486042,59.24947504,55.2223541,128.1323244,140.7884326,105.5962719,54.35282421,85.0527424,87.05918945,68.06800156,47.06483723,41.03233675,57.2863454,76.92467591,85.59838613,37.84000087,116.5617462,162.126377,58.73498873,106.6774463,78.8573566,21.27682902
SAVNER,119.0374332,0.338731,85.27090476,106.1403426,16.74644527,11.2589849,68.66353454,84.53022657,26.4133205,89.44480183,33.16201961,79.33062063,138.3591216,157.779582,77.61957063,39.75057293,89.6271179,80.15617536,53.33686689,55.31874526,25.00726991,48.96933189,115.0738876,106.6708894,100.0712709,136.4254709,187.7972635,58.1351813,45.83997149,78.95171721,21.41679255
PARSEONI,64.70588235,0.335714,97.06809304,111.5432368,17.07989844,11.72408029,65.63848421,22.47430627,42.13553509,118.132687,39.67598775,79.38213402,115.7292716,175.040283,131.2695302,37.36756664,64.61442176,94.8809135,29.45250067,22.06164245,38.46781571,29.2941539,84.13636427,101.5191703,70.95000162,135.5583599,13.21682421,66.65648392,93.55784097,79.15066069,21.43160933
RAMTEK,80.64171123,0.434483,92.21468839,104.7416786,11.20974747,36.66351708,63.80891779,117.9901079,29.49487456,110.9057462,55.54638285,94.22314168,107.6721704,111.3828581,133.6059549,52.3145933,39.45604052,85.69888961,24.05287555,92.65889831,17.95164733,102.5295386,97.13925693,102.1959648,161.4112537,106.5101399,67.07538289,115.6345091,67.74878139,79.35333114,21.51515319
MAUDA,61.17647059,0.271984,106.4254121,104.4998403,13.09578973,6.71486778,66.73056267,81.85763584,129.4896932,131.6125814,33.71921344,142.9944698,97.37599308,116.7382162,125.7883901,55.67850285,78.86513751,107.7622894,31.2882934,80.35460016,101.1908576,62.24015353,72.63213117,106.5263489,173.6256137,129.7329716,249.72276,63.33426255,23.5009323,79.43857666,21.22880559
KAMPTEE,80.64171123,0.213075,105.0962812,102.0683229,15.29591741,5.842378579,69.49842039,198.7201817,77.61809095,135.1759787,120.8377451,129.6998711,140.3246331,90.18870397,53.90278689,65.0803553,83.06534847,108.251229,43.4036852,65.02378828,88.18353074,165.4862729,74.07220587,98.31330176,78.41842285,130.462181,68.17098806,115.3141919,38.03440359,79.24818502,21.14612185
NAGPUR (RURAL),92.29946524,0.208899,88.03226134,106.7803307,15.61854998,0.698503053,52.81219127,146.1554885,79.92159559,124.5257501,76.45093553,97.26259787,125.9648618,152.7505724,56.39984983,56.4568045,74.50393175,87.72617518,28.37574258,111.5892109,33.97301,98.7811469,78.95494594,93.61595747,92.92161503,120.940546,121.7653224,67.01173586,72.26536682,79.03943306,20.94145343
NAGPUR (URBAN),100,0.001,88.03226134,106.7803307,15.61854998,0.698503053,52.81219127,100,100,100,100,100,100,100,100,100,100,100,100,100,100,100,100,100,100,100,100,100,100,79.08420217,21.14584719
HINGNA,129.9465241,0.315663,79.23925962,74.19701059,12.06721356,18.3482449,69.26907993,98.06970008,68.94905742,104.1083787,119.2684238,52.7122471,106.540181,119.0309502,66.55274862,44.47049253,56.99066987,81.61799011,32.13000073,96.26898525,90.14680044,88.77016332,77.87828759,91.41120096,96.75000221,128.7678669,127.3621243,69.55459191,110.2750727,78.87159395,21.00353646
UMRED,188.7700535,0.366667,68.7565659,99.78887454,19.40743845,15.68022832,65.46460678,78.66007194,43.01335874,77.8285938,100.2920801,35.23301238,88.01772662,79.10424295,126.6448638,45.5771078,54.53273893,67.2498231,28.63437565,90.08504002,84.77166794,116.7697523,79.67458738,86.29129475,69.84140785,102.4756649,127.2119331,128.4827878,169.3719535,79.1946911,20.85281937
KUHI,131.657754,0.3523015,87.42157448,101.275919,19.68752269,3.522427547,63.46491877,54.72005005,126.6356027,112.5130758,106.2626455,61.97508762,116.8120441,169.8419564,142.6940428,37.21986875,88.70286947,83.21486383,23.90347881,26.85765168,143.092841,80.2405085,84.46891907,95.33974254,116.0649483,127.138586,116.6528398,82.91108963,78.54931176,79.45000307,20.98383868
BHIWAPUR,141.1764706,0.3027045,80.53056608,95.43975677,20.20142543,16.92611538,64.07340717,65.25872635,120.1643038,65.72192365,125.0822251,50.10917316,92.366391,91.4732548,140.7579027,53.54759718,62.73047093,82.94806106,32.5795563,91.51496129,99.2881235,56.70769544,77.05417873,89.8381991,44.14666768,99.83980793,60.30787938,43.27841275,168.6191892,79.37421962,20.7291167
TUMSAR,60.7486631,0.383363,95.29983439,108.1663531,10.17203073,13.16546722,66.76241187,67.57375308,102.9351327,114.9147023,149.1178063,94.69336559,107.9130478,78.03152068,151.7677219,68.94418641,110.5725018,96.62693594,151.2817484,331.6649604,99.59750644,95.41898898,85.41971333,97.38572757,149.9949699,75.90228397,131.636021,115.4575105,99.42550469,79.7127791,21.44861727
MOHADI,46.63101604,0.333333,97.3297321,107.6465115,8.364048767,6.296482083,68.42530797,106.8589657,200.3425442,104.2609464,136.9445414,96.63911967,92.87087477,61.51994698,98.07239637,57.42939916,119.1125752,100.2515312,93.35887006,69.931244,158.0648193,128.9679731,78.50803116,98.07134942,187.4150986,112.5390158,146.6319366,94.9267072,54.53989949,79.62829715,21.32595095
BHANDARA,54.75935829,0.377005,97.69840533,93.93317519,19.84743764,6.479014533,68.7953863,92.9619032,87.14394757,115.8584749,104.3598708,83.4610579,105.341604,117.4999877,100.6216445,47.55872118,76.98739614,94.13893177,81.21750186,98.27458911,106.077916,183.3103873,67.44815979,100.9039026,174.956254,58.09643996,187.1382156,84.83552498,65.69578802,79.67493053,21.12583322
SAKOLI,91.87165775,0.406036,99.00647278,106.4995961,17.83742218,11.21536612,66.38687524,40.59874681,104.6592323,117.161324,130.6036815,89.36520744,132.3160313,111.3108717,183.178304,73.63931022,100.9942186,99.52129117,147.790326,26.56885973,164.7176242,164.6352448,72.37536712,100.1364719,133.5080676,71.63145285,187.0251685,104.7058373,58.27852163,79.9735402,21.10964038
LAKHANI,80,0.372976,98.01050171,100.7464702,18.52540734,6.535558697,68.15608034,61.09520151,131.7246825,108.8089078,109.2951481,99.45385132,124.2486072,97.36096278,165.3733747,88.65315017,106.1379636,94.29651284,149.4547607,239.8935878,134.7825948,84.94356599,62.97231854,96.72247164,163.9427222,94.75924187,154.4956928,91.38888128,70.16055031,79.85487927,21.00843764
PAUNI,264.5989305,0.349765,86.91083126,88.67075607,21.09936479,7.027556217,64.79910748,48.09787839,54.48097849,78.32431733,54.72085274,62.784651,87.78368035,73.98637698,133.3316247,58.16098387,83.36214869,82.96962561,35.0178352,110.1676923,97.57158633,83.59096143,63.13881187,93.11312435,98.06465192,94.73050082,153.2141406,66.15808318,135.7852434,79.66943265,20.82228813
LAKHANDUR,80,0.41471,99.7168211,96.92543431,18.75814296,4.994618566,63.65497409,56.56454612,62.96658614,115.4311728,96.5300436,97.72495248,130.8888022,110.6485019,156.4448221,68.39905968,103.8032308,92.43925172,123.5460702,0,118.3329562,67.58501423,61.87761213,103.4202784,100.4460697,95.73945162,216.221304,87.52937409,60.89778103,79.85487338,20.78100394
TIRORA,135.1871658,0.4643665,97.40630939,98.06114514,11.50768172,8.65475631,72.10280936,112.5542493,127.0917359,103.7714584,137.285369,108.4243782,116.0508411,110.9642214,184.7368776,68.05150348,116.4199649,100.3304074,134.092686,140.6205503,93.40694545,142.2632081,72.63213117,97.7225184,149.3987839,74.31306141,186.539893,105.5571043,132.1927442,79.95123214,21.38020699
GOREGAON,75.18716578,0.3655685,103.0110375,104.8624359,12.12186724,15.09087997,70.38397913,38.52738218,132.4259674,125.4787533,114.8714312,104.5280274,83.71014222,79.82335234,241.8257284,77.64689173,106.8396518,100.2735307,123.4200028,50.42661132,97.69603989,100.4370991,86.16562723,104.9722033,126.6964315,56.91079833,234.1266004,105.9879496,58.99213618,80.21637066,21.31149927
GONDIYA,86.4171123,0.483572,109.4656262,95.90611531,12.18374624,10.69365056,67.26074181,125.0226309,117.1981771,136.0711839,174.6093801,111.3589856,107.5703046,90.69308205,182.8493101,103.3063612,107.0685642,108.2114015,83.74132642,179.9996258,126.8107538,159.3395038,85.90925575,105.4185821,236.8132504,96.44265529,159.3021197,144.0225325,62.21521647,80.18440197,21.50740121
AMGAON,115.2941176,0.539139,110.9349635,98.65003554,9.263036538,7.938985456,69.69306073,16.78081535,62.92239906,122.4503209,134.2988101,103.0817277,150.9461285,84.03610647,241.2186342,60.87516311,121.1268366,111.2181145,102.6256023,0,146.8045826,94.78286238,66.90115753,105.3994586,99.33000227,99.15125753,187.5026795,95.21250804,77.08305794,80.35597998,21.391419
SALEKASA,111.9786096,0.582547,93.08336016,97.11871616,6.935963127,27.22210524,66.472344,86.79732076,54.24344747,82.30150149,108.9645518,57.76131291,116.9247872,76.91172022,197.191561,65.59823611,70.79300795,93.25089904,101.1089678,198.8083642,187.0823017,81.70936412,50.64006878,98.32967912,125.589658,87.2559558,187.1623843,104.4651342,116.289096,80.50382612,21.28287771
SADAK-ARJUNI,162.7807487,0.323944,103.677536,96.81380452,14.44711663,20.73896569,69.51718851,47.04901499,66.15672799,129.4718663,116.2840164,54.19016057,108.8701252,68.74686338,132.2190524,46.22529909,90.65805527,105.7219947,82.21009534,92.3702413,98.42647757,91.98911878,75.4868315,99.17885298,148.5308445,92.66472666,197.1406677,100.1066089,94.5528164,80.16828046,21.1179424
ARJUNI MORGAON,139.8930481,0.346283,89.87136281,94.61304338,18.3954406,22.39301251,65.89271635,39.82788453,143.7408444,107.383756,73.12435211,85.62959971,107.9966797,110.7667461,177.2902983,52.97680334,69.19120413,84.61409354,80.03126765,109.4704284,115.132928,107.2882936,57.31729304,92.52380078,135.1642436,75.50085868,128.8222107,104.7721068,82.32763309,80.09225024,20.82396029
DEORI,88.77005348,0.409458,91.89388765,94.82983094,11.02372447,52.97631555,61.30700052,18.78449479,39.61998075,105.7074931,134.8588798,66.34924634,131.0126196,79.97244052,196.422815,34.07191965,85.03085544,94.65250495,73.85104646,18.43958175,164.333488,85.6963308,80.36906438,105.8627766,122.3093312,67.05658741,229.2231304,75.09127585,86.28700516,80.37089565,20.9660193
DESAIGANJ (VADASA),92.62032086,0.3770925,89.36427613,96.89412168,15.81913691,9.836573888,63.50367647,209.7601918,139.2813521,108.0952692,131.6655001,85.90143971,127.6114613,75.39525219,124.4693735,105.6860471,85.54155127,88.87292256,244.3466723,0,66.4875827,106.326929,98.58402278,96.25521332,137.9583365,81.76535994,185.035539,189.3430558,60.22113902,80.02082758,20.62521394
ARMORI,154.2245989,0.364583,94.45947385,111.0791121,11.70787975,23.81124031,63.6942543,37.38300449,122.6519536,109.4223794,70.39541589,88.02771297,89.34607259,145.8694258,128.7940641,79.10757583,51.83309839,89.37573966,92.53722984,97.85758237,203.8074812,86.6256168,65.43097996,95.42131914,68.84257583,44.48308274,139.234663,134.9772279,67.97237473,80.08706479,20.4257424
KURKHEDA,133.7967914,0.506792,100.4529197,101.4329013,9.708429231,57.70380072,64.12414113,19.81986065,62.70563883,104.1800074,60.64906894,100.4438094,127.8985512,118.6330767,145.2913717,62.91232408,54.55799727,101.6690239,73.59260011,194.5593665,184.6993636,51.66842892,70.34450499,99.7605705,109.4976403,46.35516469,151.5251658,89.45341217,65.43714318,80.28575089,20.58005565
KORCHI,248.4491979,0.686486,100.5348106,106.0093348,8.039989722,73.18913363,57.26385564,393.3003597,94.47577008,92.42145514,148.1236876,102.6790647,55.11789677,84.42171462,150.9317983,130.7864833,63.75518743,92.84046375,171.8062539,791.461423,344.0732405,222.1473337,62.14617816,102.3651634,213.4043018,50.83438496,141.6678346,157.2223588,36.69725659,80.48689663,20.66018824
DHANORA,145.7754011,0.65252,95.29655453,106.9874416,4.757067886,71.03557523,55.40090845,5.544322251,11.69400313,52.80001518,9.135381614,49.38386732,64.32774101,76.01773714,204.6602159,18.43686108,47.48121348,85.06967603,7.265815144,10.88503945,221.4300111,19.27133766,38.8166166,103.9937932,35.0061682,38.90158094,40.75672665,61.48585071,191.0097801,80.3585793,20.2431058
GADCHIROLI,92.19251337,0.182214,83.6558741,107.1549198,13.27400856,22.30996286,60.1050858,30.94822503,116.0454081,96.9667726,67.99120086,72.87540172,68.58742472,128.87027,137.5167323,81.08372136,68.15277691,82.42079001,72.10229673,20.2533111,27.46700138,71.71464997,70.21812816,89.64752962,77.34713292,44.4453639,87.96771527,127.7067917,106.621033,80.09238675,20.10610114
CHAMORSHI,85.56149733,0.433086,101.970522,101.5624158,8.560921342,18.53233114,59.75143962,44.49458615,95.33696828,118.7082592,100.2453239,133.7329232,129.268753,151.5232041,85.88758948,80.70570867,64.54498868,100.4148606,41.65000095,49.91725161,176.4943104,41.42607622,91.47608384,102.2711642,70.23333494,49.29394905,112.1427509,118.0320348,51.09672401,79.93088713,19.83576837
MULCHERA,190.9090909,0.522484,103.1226421,95.64992157,5.953654968,32.39784218,62.69184304,70.90485358,12.46262305,61.38593314,29.2074877,98.00023404,78.56963208,98.70153582,173.2409906,37.51110403,52.04781711,104.6089732,46.46028275,104.4043925,53.93922202,30.80699752,58.60458664,106.7619444,132.9063411,43.64051828,161.5803298,100.576593,61.06932407,80.03551117,19.65650821
ETAPALLI,126.5240642,0.8348485,101.1125969,111.9204216,3.540440322,81.50110753,47.2149973,0,1.536191383,38.9142969,10.80068555,88.5858597,13.67265656,65.75318174,109.674548,17.83452044,21.65270516,92.24533257,0,51.47716573,114.6910802,8.54412822,33.14462835,95.87921639,23.28046928,15.33100499,77.09814125,54.09801593,95.97744031,80.37685787,19.711247
BHAMRAGAD,39.78609626,0.75,80.67997344,113.6620576,3.105299381,81.09841707,38.83705432,0,0,21.86919165,0,38.33617971,1.35596594,43.95737536,83.78746792,3.14437826,20.36030311,72.71420937,0,0,0,4.519208314,16.18250132,55.48595974,8.209091097,7.682173879,12.23375465,50.96837865,143.3362648,80.6176527,19.44089855
AHERI,148.0213904,0.735043,99.65344176,97.27972531,14.75928621,52.87205884,53.34664943,35.55257489,43.32580444,61.55933973,70.29598733,67.70198215,88.06117786,68.33651665,120.1779342,51.58912128,37.40630547,100.0627336,31.06101766,223.3585496,27.04579635,43.25163212,58.07872295,81.36828414,56.11864535,17.50551863,43.90673807,75.18707299,257.2157124,80.1417323,19.26089881
SIRONCHA,183.7433155,0.5,90.27810821,102.9162513,26.63042671,24.71297658,45.52036469,8.679732076,8.13651712,19.32296122,114.4127794,26.6590675,124.4683218,128.2333118,185.6541487,28.86322389,58.40423156,94.56429199,11.37475888,34.08143386,56.1246905,30.16961137,94.52812839,103.8062688,34.25172492,26.71100688,5.104428662,185.798703,169.4498256,80.10363274,18.88027227
WARORA,38.28877005,0.2657095,85.46520145,107.1393368,7.659509791,24.71361833,67.12211785,32.10615181,90.29043233,79.41693245,22.671993,40.43065211,99.61506924,90.89009351,107.2549439,21.35289523,72.27388209,83.94993268,19.63500045,37.81995849,29.30881197,50.21854954,106.1460625,99.99983578,70.95000162,99.59389707,41.53859039,87.77127075,62.67914469,79.03125134,20.34911844
CHIMUR,173.0481283,0.423042,68.40258617,96.44085318,16.50987632,32.03536483,62.93918636,14.92365001,32.64254892,54.14163047,25.76064132,32.08571562,69.39008311,96.99156589,113.9429108,52.63415783,55.38223754,65.48795254,36.94173998,48.83209397,32.1663246,75.64761744,41.11586612,71.47805614,51.0391316,39.80256756,21.940973,57.73306048,214.2253957,79.3990217,20.50829452
NAGBHIR,151.4438503,0.4127565,86.77976981,101.0251733,12.44925575,19.14674485,60.41672967,50.74843351,99.90199448,94.1474925,78.84002727,82.61086037,108.4991456,86.89252056,165.2783758,79.7759194,73.26219955,88.46336992,75.37306624,119.5598688,119.6776489,105.8369431,56.25539899,84.70846898,104.1362927,79.96069155,104.4555462,88.99996169,128.2127476,79.66018341,20.52457746
BRAHMAPURI,125.9893048,0.456882,83.9936152,104.6033454,14.50591671,8.321038881,58.47904266,80.90750257,86.37784693,91.17063845,59.24947504,56.60291295,124.2258511,124.179208,121.8941009,57.07046542,84.68613576,83.25034991,153.1530035,52.94794189,85.4840349,156.2354874,67.30909142,95.9114447,102.8775024,45.37055311,68.72748592,99.69491507,82.58899065,79.85121236,20.49356928
SAWALI,106.3101604,0.453613,89.52646175,96.71142688,12.12744471,15.20609244,53.64426052,33.12003029,54.33266367,91.48273306,49.37456253,49.16727141,135.2873386,70.38127371,137.1572329,73.4239906,72.93542792,88.2047051,33.75842182,43.34919219,50.39058899,57.56044274,90.17485932,95.93858433,95.84473903,47.56433681,55.18603795,82.5706559,133.1204126,79.86425533,20.14342001
SINDEWAHI,124.171123,0.409214,89.33700598,96.86969297,13.08402753,28.8274176,60.52400468,111.377093,44.37282014,45.45740877,41.946531,35.91896483,56.62657762,80.18775841,98.30648344,53.87182576,36.79043709,76.85092166,43.78778861,196.7976601,46.60014646,135.4962634,64.98061923,91.99613308,114.2734539,27.42014865,130.9986117,109.1535189,195.0525388,79.61919629,20.27775638
BHADRAVATI,80.64171123,0.2520625,83.20122261,109.6187104,10.80193099,26.38626956,65.56616444,51.02274937,109.6093311,102.0185621,74.0618438,57.46109818,113.0765651,154.1462759,71.35379779,48.84409203,64.50295352,83.38270341,26.0031087,100.171782,29.11077945,59.11613038,89.30444562,90.72704228,33.5574332,97.35079128,90.01728925,52.63590739,153.8080442,79.22155721,20.18865351
CHANDRAPUR,78.82352941,0.29932,92.4458029,101.5952047,15.57245797,19.86464171,64.57535947,86.3718437,57.83308738,99.19330582,43.56579047,39.79257869,98.12141768,128.9144754,55.32558644,55.95143669,89.06385044,92.98049461,64.68000148,387.5927772,42.23917019,58.97123791,100.7836663,102.9789231,63.29853086,106.3202823,116.1007304,114.5605043,102.7301783,79.3770551,20.01962778
MUL,91.01604278,0.390966,79.09252025,72.45741452,11.6753774,16.9253718,54.28334231,46.61337597,166.5914211,90.8000261,65.83275004,57.26762647,112.4196206,120.7944576,144.6239973,56.36589177,68.43324101,77.23480175,71.26777941,22.87874032,84.21760475,91.13736768,71.38843029,83.22065318,64.38055703,63.11711995,61.678513,78.14157857,103.7141839,79.6860581,20.04093865
POMBHURNA,51.3368984,0.405974,83.20122261,107.1739211,9.598078021,26.66548512,55.58429157,33.12003029,15.52361819,110.598528,77.95983558,73.75090712,120.8950686,123.769445,153.8010073,45.05563059,68.88345971,81.18842174,65.1055278,65.02378828,62.98823624,57.56044274,90.17485932,88.33948854,58.81381713,69.30803363,38.95485032,55.52164793,66.56020628,79.63972891,19.85940042
BALLARPUR,86.09625668,0.386441,97.48830123,85.89614668,11.64374961,26.77842657,62.00621981,457.6586004,125.1297709,132.0727652,125.6807046,52.7122471,109.3812525,71.69572981,190.0369056,80.70570867,102.6498615,93.48969776,133.280003,224.6276323,101.5446718,198.8451658,92.71224713,91.87997635,30.10000069,103.2825599,112.1427509,118.0320348,87.59438403,79.44170538,19.86314979
KORPANA,997.8609626,0.289683,107.3273224,113.533381,7.990320514,29.6090247,63.22691131,112.5542493,251.7855146,50.62022361,276.9792532,26.71325259,28.01227198,69.32182258,100.7158649,330.9777669,72.60599961,110.5492451,75.9858554,160.7092003,89.51498939,66.68587879,121.3852055,35.21532195,218.0414684,136.0306887,339.9839985,232.2256294,26.43854884,79.05570068,19.75753771
JIWATI,963.7433155,0.735944,110.9349635,113.9399638,20.21999353,29.09737949,46.12189735,14.46622013,250.8759445,32.20493537,269.0062372,11.10794479,45.26120793,62.33449274,112.344448,266.7661602,74.33265834,110.3250073,44.23517343,369.2155335,38.51694446,31.42667851,120.9734976,2.489358965,114.1724164,124.6513654,289.2509575,179.0830872,16.612728,79.11426015,19.59558656
RAJURA,166.9518717,0.309142,98.71331496,112.1458732,15.09424479,23.69137974,60.7063335,31.9973174,119.9791508,98.93465314,32.63742269,132.6740457,126.5300082,173.2935488,127.7817525,90.28096225,83.51175175,98.77160159,46.59152649,62.81959207,64.90991125,46.34103441,101.6377652,100.0279282,21.04449201,73.52317825,25.08956461,63.26717117,45.93137722,79.34236038,19.70353212
GONDPIPRI,54.43850267,0.3687105,98.97138898,97.90639324,17.27436164,17.18587601,54.24470655,61.69417407,63.61639611,28.99496632,20.33070222,62.53119508,70.77610456,91.14424783,192.5283554,44.76114935,61.89182827,90.74000077,21.56000049,96.89819431,37.54592905,75.05430279,87.58580523,80.68451705,68.16764862,24.30177881,87.07554777,76.37366955,116.8998581,79.62534736,19.67023191
NER,112.0855615,0.381568,76.50687136,92.90584153,20.95238095,8.297591554,69.73693124,65.09799057,40.6825856,80.51233841,153.231401,74.97862733,101.8377178,80.22821692,146.1923119,75.43797153,66.36844495,79.78862137,104.2686231,106.5044808,144.4385417,61.28202309,83.3451132,80.28182663,137.0068997,81.46857097,47.85401871,47.56894504,124.59546,77.85181179,20.48791204
BABULGAON,15.61497326,0.296547,79.80932624,112.7257003,13.47237817,19.2122305,72.37358605,0,140.0476058,122.0621111,8.525104322,109.8487835,120.3980693,143.9687661,100.6332733,65.69262207,74.21806534,73.9846529,11.86575567,17.77628744,37.8835723,15.73594838,93.32588215,86.47388319,75.03345495,103.6540799,18.63667299,53.70882157,90.98157693,78.14237041,20.57209275
KALAMB,54.01069519,0.456221,92.83918929,105.5226088,10.49270073,30.87824196,67.95878409,17.85193122,129.6937747,88.31613481,10.50522607,87.72912992,82.61775455,86.62564188,79.95251675,40.47550739,61.15310899,82.6599219,23.39489415,35.04828305,50.92665909,27.14730101,92.00211077,88.31927818,63.40212911,79.1100459,186.3478478,41.43677816,158.8813029,78.3665696,20.38713225
YAVATMAL,140.2139037,0.44751,99.21648142,92.43092936,10.06006316,32.80150261,65.40496426,177.262134,72.69863448,111.8100925,77.19121748,112.972492,123.6316269,66.84223379,132.3309451,112.5333121,108.4329523,99.78086678,77.43380459,295.8124453,148.3328606,138.6314889,111.1763482,100.6612618,83.94084699,101.464205,31.27361223,98.29076134,86.51487577,78.13501392,20.30086828
DARWHA,42.88770053,0.3539,94.2187361,104.1795142,13.85334599,9.044067538,65.99968592,94.82310042,137.3733884,106.6145121,186.6764282,132.3823557,80.91215938,68.24411614,93.53236225,70.36084778,100.1890772,96.26450614,75.31233049,84.61999845,154.1054657,52.43519784,113.1597427,104.5786521,129.2650714,96.56211938,93.78513621,53.35694722,49.49682659,77.77359444,20.3180284
DIGRAS,45.77540107,0.394841,104.0015283,101.148539,8.481550912,15.95446024,59.48339623,78.66007194,33.18173388,52.53430082,40.73401409,140.1267235,137.4101985,101.5389767,143.1837206,61.82633754,103.9329848,105.6952972,61.85025141,30.88629944,53.85494199,82.02363091,113.2016537,96.10481455,173.827504,91.01775593,41.63299628,85.20437509,31.61609798,77.77261099,20.0924162
PUSAD,84.17112299,0.433038,105.0341675,106.0265511,15.27241461,18.26399836,56.71988715,20.08342262,28.23977352,121.7106733,14.1820552,104.8637256,114.3266815,75.66137683,104.3231395,76.90346404,88.45360408,100.8937282,40.94106477,65.71553071,28.0096625,61.08142727,117.1724996,107.1351244,89.8196829,79.93410888,108.265475,98.41234813,46.12682989,77.48694932,19.89830888
UMARKHED,144.4919786,0.4528535,95.29028914,76.72429136,19.06191157,15.81508171,59.54506163,104.8800959,30.2511534,52.88353168,91.15303852,66.90400593,93.60511031,43.45835914,164.4780749,39.02254046,58.23405606,94.48851932,66.96038615,142.5521512,24.5492613,122.684918,106.6904013,102.0397814,89.14230973,25.82063998,52.189511,106.1153389,134.339464,77.86980186,19.59481029
MAHAGAON,141.6042781,0.336366,107.0425086,105.2167553,11.93259466,14.07396506,58.95251942,55.20005049,12.93634849,76.46317987,15.59196712,72.90319554,153.9972897,33.64644143,78.50284319,43.38690354,135.0656073,107.2489028,53.04894858,21.67459609,79.78509924,153.494514,120.2331458,108.287115,196.0460571,84.2568252,12.98495011,74.02886391,15.84766816,77.76348717,19.83569662
ARNI,49.62566845,0.315992,97.82446779,87.36210635,9.533902233,17.25791402,63.57601659,57.20732505,123.3422027,114.6202927,48.47684321,93.12496987,123.7996903,130.0025283,136.2437895,62.25868955,106.3825838,102.8386675,54.97800126,22.46276323,47.87105954,34.79790402,107.9170557,94.50511853,284.4450065,109.8550865,121.114171,79.67162346,91.97410323,78.0146391,20.03801561
GHATANJI,76.25668449,0.411576,97.8837913,87.13271104,7.650860232,32.25569935,64.49101692,52.88072063,37.17841331,125.572185,129.4526345,136.4316984,153.0418365,142.0887796,193.526491,63.94449907,100.9246538,97.94158813,50.82000116,83.05559512,128.7288996,82.71290512,111.0677139,103.7372362,91.81764916,113.2636476,59.08697884,84.55656272,60.72719901,78.30845191,20.03700332
KELAPUR,143.1016043,0.377309,101.4262523,108.2211988,5.512017758,41.60348161,63.05794043,26.96916752,250.7064338,145.6506541,67.71368576,150.4809149,49.22156363,168.6639558,104.6998605,59.78810663,89.08541554,89.77978912,51.05100117,17.64931396,92.32275769,66.40008216,110.1421496,107.5136356,67.40250154,116.1928799,81.94431013,102.0134015,25.80905958,78.5295596,20.0207181
RALEGAON,309.8395722,0.255157,93.99832783,111.1791796,7.904423233,28.95198881,69.37740564,48.03668516,18.01213714,120.0105034,115.3329476,97.37682288,118.9834235,147.5777501,93.70192184,46.46959016,78.75046628,89.84209293,16.78717596,56.58558675,65.77702838,41.74230581,99.9593724,105.8072574,41.70343607,57.94861187,121.4737126,96.63309716,96.53770377,78.59780995,20.31432028
MAREGAON,51.87165775,0.17364,90.31873132,112.7464062,5.09318664,33.39854916,67.80183353,22.2754186,174.8811147,59.23238112,214.9759714,3.420853794,10.1637447,131.440391,118.7115653,23.56892377,117.1843552,77.862118,0,0,131.3276855,14.5174568,98.55393916,88.16296087,39.55619559,82.26044596,26.19972234,20.10722716,105.5202259,78.78653358,20.12857981
WANI,132.0855615,0.142241,82.7610045,91.63829966,5.760664778,38.62028523,62.06168464,86.52607914,29.49487456,67.12716215,55.54638285,70.06336176,103.5703735,53.73247767,41.30666596,59.44840148,97.19658763,92.84046375,65.28637649,108.102048,11.96776489,41.01181545,110.9070256,102.1959648,242.1168805,69.71572795,87.89188103,64.91761912,149.0473191,78.74077412,19.87568242
MAHOOR,16.04278075,0.331887,92.21468839,101.6631806,7.672614753,15.89262918,72.04028777,27.66068464,51.85912011,87.2364458,65.10931323,129.5601385,100.96731,37.36088521,160.1836412,96.16268899,125.2102706,106.7312178,42.2907702,81.45837214,115.7322319,42.06340047,117.0008182,104.7172101,38.20384703,131.089403,61.00072715,99.87326018,71.47124191,78.96596818,19.96826006
KINWAT,167.7005348,0.3460655,104.8396358,110.5414683,8.590154092,14.81488893,58.02166065,39.95432226,168.5421404,116.1252034,195.9308037,144.1917024,42.53715375,113.7394512,63.30260268,167.0846078,117.3141275,105.8010983,37.81555642,65.36782949,326.7389778,107.0502414,117.2000534,104.8494288,86.71666865,61.47771424,199.7208992,158.0005545,91.76554517,77.99844549,19.81326859
HIMAYATNAGAR,25.98930481,0.280508,105.0653887,108.2074433,8.85756648,32.91308032,53.15760625,0,21.37309751,60.90933428,21.4672011,142.8578291,147.4269055,64.42104306,111.350616,66.16865556,118.2704926,110.9531518,39.83913135,71.62040449,48.56484302,39.62494247,118.832915,105.148358,21.59347875,33.67909563,26.81674478,56.45010358,31.4197247,78.16559442,19.5738899
HADGAON,103.7433155,0.3488265,109.3272104,93.89062969,13.73044009,16.89009998,53.79529919,25.00452618,80.085421,86.59075337,86.32373847,94.71913716,129.3016793,84.53950626,172.4720851,95.7473592,109.1079654,108.2114015,105.5868898,49.09080705,47.55403266,39.83487594,109.4127314,106.1357153,72.3596043,59.50717029,46.56523498,98.8811417,76.57257411,77.85111137,19.39738232
ARDHAPUR,7.486631016,0.31085,106.5269517,97.53632204,22.16999996,12.81729326,56.39359129,71.23931044,161.3870495,135.0986911,11.17914623,91.16898083,108.3493539,154.0619425,92.4998036,43.07204937,116.2073904,88.39382325,124.4784934,233.1041467,18.06455077,61.9046271,117.7620467,108.287115,65.59528452,146.1545659,48.87731219,61.2430369,47.72241205,77.57490065,19.45344666
NANDED,63.20855615,0.298042,98.37628836,114.1408324,18.27095452,3.580836352,56.16230565,28.93244025,101.706464,135.9763938,85.12855609,153.2896381,99.95183418,112.1292576,131.4201595,83.09109908,109.7291623,109.0116144,202.2179357,85.20358465,82.53630956,43.99734991,115.3468233,104.5530765,17.12586246,78.35228684,21.26845276,100.7342366,45.68500201,77.37535197,19.27445857
MUDKHED,38.28877005,0.315021,104.5593909,90.76228014,23.31722887,1.289814835,56.45283822,48.40619812,56.72091262,131.709928,56.97064908,182.1275717,148.2957366,93.42595534,181.1531513,58.53381069,145.0916312,114.2651862,137.4450031,0,27.61791897,31.54755035,120.0267015,108.287115,57.30577054,137.0480122,28.467006,93.63118142,34.74296482,77.27880352,19.1641606
ZARI-JAMANI,15.82887701,0.276056,110.9349635,105.7331867,17.69383482,4.631206674,53.11380576,39.95432226,23.4086306,39.53198415,39.96988395,36.81490273,82.03593938,63.82163104,125.8250405,24.15681076,61.10110805,81.61799011,13.0900003,19.61034885,49.39077572,43.39874651,86.44313328,82.50446856,43.35833432,55.32994282,8.811216143,48.94582394,226.5461896,77.47992057,19.14205237
BHOKAR,300.5347594,0.27397,104.1706364,93.17786034,16.22744607,22.74460698,50.19338788,46.04492016,53.95403883,106.3024696,155.3492333,101.3532231,98.04295194,88.64806788,182.9230302,64.95825332,120.1754476,103.1173631,60.3417087,150.6648753,64.217275,33.34293939,99.99355044,97.7225184,18.17012237,68.01534434,18.05224771,39.5839141,79.31564651,77.71466963,19.20519886
UMRI,358.7165775,0.303078,102.5307996,93.34722395,20.17703875,10.05519306,50.47041406,0,160.881134,91.97924722,8.977193188,90.78220333,77.06406426,50.630037,141.6158306,46.11754781,100.3169101,107.3400234,66.64000152,0,43.51914504,33.14086097,114.9631864,106.6464011,0,18.77864726,5.607137546,44.26201304,104.018331,77.63715358,19.04222333
DHARMABAD,89.94652406,0.237943,96.55450525,108.8503829,20.97723487,15.72142461,51.91361574,46.61337597,142.012359,86.47621533,21.94425001,143.1690662,109.3812525,122.5413732,107.1351326,42.27441883,108.3526316,101.5690544,71.26777941,0,17.73002205,40.50549674,113.3149687,104.2764811,18.39444487,43.03439997,13.70633622,30.0544533,53.52990135,77.78450562,18.91504761
BILOLI,23.85026738,0.2990535,99.7168211,111.6316019,22.94698027,6.7449244,48.6768711,28.28227306,13.2561234,62.96245791,59.91519948,67.32163393,127.2017936,125.4354792,279.6149591,115.4234132,124.5638769,98.8586442,253.269444,83.28889735,32.27262441,55.29682983,104.5044116,105.8536967,27.90168603,27.85147683,266.118528,65.64703057,190.8130472,77.68169102,18.76257944
NAIGAON (KHAIRGAON),150.3743316,0.287735,102.3066885,89.32040702,22.26633419,5.24750093,54.51408015,111.8721023,58.98974912,81.28764241,65.83275004,92.34404769,114.8503151,49.21803981,156.6821345,109.913489,116.3365097,104.1082807,244.3466723,82.36346516,101.0611257,72.90989414,108.78237,98.66159365,88.29333535,67.13366395,78.12611647,97.37642868,124.4570206,77.51130512,18.87744589
LOHA,36.14973262,0.313088,109.1600041,113.1201821,17.32457752,1.734478325,52.39283715,50.34244604,21.23630968,70.97967755,4.739958003,182.4546579,141.7581032,57.09164267,36.96822818,21.30630709,113.3254471,110.6087002,365.0539283,39.53446328,42.1265324,26.24756189,115.5268769,105.6882242,67.54440154,4.957562876,20.72398037,119.4484192,69.37475215,77.18553373,18.96825818
KANDHAR,47.48663102,0.314973,107.4682459,105.4401234,21.06665714,3.228182317,53.93629419,58.99505396,43.78145443,75.39645024,101.8350352,161.5685282,148.6901401,83.5617332,160.635658,86.20018214,43.30541033,111.5870959,214.7578174,77.21574859,86.01831012,55.53683343,117.599691,105.7491357,46.56093856,113.7721949,176.3619981,60.86026792,70.57164729,77.24430341,18.82629732
MUKHED,249.5187166,0.274496,110.9349635,97.09273317,23.02514696,6.12654234,53.17286312,41.12944938,242.898967,138.3619445,197.4982501,106.1135432,124.3943656,78.53296637,96.85339721,166.6109448,143.9110804,113.5183549,122.1733361,16.14969905,137.6684065,57.1842307,122.3801662,106.1638382,103.8745122,49.61613173,94.33184342,118.803486,56.67871908,77.37536701,18.60377167
DEGLUR,342.7807487,0.2999095,104.5958227,101.9994572,25.83103092,6.555381873,53.01750044,59.93148338,36.51746374,114.1486042,141.0701787,112.2854533,117.1941991,51.36797909,74.13047879,72.47043228,117.3141275,108.8239868,141.3720032,141.1945117,95.74211909,41.66279665,115.3870139,104.1618916,70.95000162,95.90523422,74.0142156,71.10024951,99.79503037,77.54848731,18.48798955
SENGAON,60.21390374,0.64,105.007141,104.528634,18.76524823,6.673949893,58.19126861,134.5027184,29.26972285,72.48159117,42.96717655,112.130887,129.0030802,78.41627786,85.35935604,46.46959016,99.90730797,110.7761728,209.8396995,75.447449,43.85135225,66.78768929,105.5645709,97.54106541,121.3190867,39.02661615,31.07467067,54.51097789,102.054144,76.8694813,19.83886097
HINGOLI,43.85026738,0.371197,99.33392154,109.8031574,16.18277734,7.467347636,57.27873213,90.48478864,44.33870032,114.962498,40.66140444,122.5358772,62.19718279,84.01557655,70.50202636,44.76114935,116.7390582,100.8222231,64.68000148,96.89819431,81.34951295,71.48028837,107.9824996,100.5017668,68.16764862,31.38979762,234.6202259,84.85963283,70.84839884,77.1652608,19.7915988
AUNDHA (NAGNATH),76.04278075,0.3899085,105.3882153,109.778659,13.04458233,15.68496478,56.10648011,31.46402878,7.37371864,5.18857292,266.6226377,175.5610674,149.0319565,90.94030519,127.3411779,57.07046542,123.1798338,103.7908774,18.32600042,41.18173258,0,31.89807869,116.2611579,103.7751519,53.80375123,134.2673279,55.5106617,70.32742071,21.07739866,77.03114525,19.55708042
KALAMNURI,22.78074866,0.4041305,101.3842713,104.4965277,16.63112078,20.46669085,59.38983998,75.01357854,5.859908853,80.40569956,5.885709441,104.9590439,103.2240297,70.66702212,99.12823209,32.75567552,119.3049715,101.4008937,10.92278171,98.1816141,41.21349497,79.66975188,106.9813374,101.8329161,210.5006671,53.35125612,61.27004603,178.4159731,126.8233259,77.35572872,19.56812886
BASMATH,87.27272727,0.3330485,101.4471048,106.3389542,16.01807999,3.876213286,57.40886344,49.68004544,122.2484932,103.4301049,46.77590135,122.070467,114.418547,83.63967323,130.9394819,32.54017765,118.5200704,100.7337825,68.72250157,16.25594707,85.03411893,64.75549809,92.59025733,96.8884713,13.06973714,81.5388631,41.38952846,64.06343992,78.4459574,77.12197662,19.33691472
SAILU,189.3048128,0.355717,108.5746451,109.1129212,12.75325334,0.780310652,49.71215316,53.55579366,37.65303136,117.5708545,144.9721198,156.2675127,109.9630677,78.82363257,60.58684971,56.66571035,122.8522279,110.6184249,111.1257472,420.5793966,178.2433068,46.5382303,121.0782496,107.1351244,147.9383013,110.4244391,70.86467451,127.7633993,46.12682989,76.47331932,19.47586495
JINTUR,56.68449198,0.270889,109.6374785,84.62187432,11.48554295,6.297779548,50.29991652,191.360175,44.84600811,44.60352159,25.98661186,57.64438717,124.7330072,70.71093446,135.0656627,57.84920471,104.4507363,110.2558814,93.23754599,202.2962302,55.98954333,51.16483799,110.9293904,102.5877931,63.89649269,92.41071151,106.0437592,74.02886391,105.6511211,76.68825885,19.61203349
PARBHANI,96.04278075,0.2940905,108.3749259,105.395039,13.72225113,1.611168921,51.69430168,48.40619812,56.72091262,77.8285938,100.2683424,105.5596538,138.8300513,75.35277697,153.4514182,67.31388229,118.4421479,110.7493343,190.3084659,95.03476749,29.45911357,63.0951007,112.9663073,104.1222259,87.86884816,77.46191994,96.7878204,112.3574177,50.02986934,76.76094437,19.25173395
MANWATH,84.17112299,0.280018,108.9179641,102.1401983,14.31180258,1.058947693,50.88794823,0,134.0676116,67.92313641,32.31789548,154.6225915,110.3756275,71.32817203,67.30248508,96.84685041,137.1775422,112.1876373,99.96000229,0,17.40765802,49.71129146,102.3543208,108.287115,117.3900027,112.6718836,40.37139033,118.0320348,32.84789401,76.54810148,19.25760525
PATHRI,701.7112299,0.2889005,110.9349635,107.3434928,15.60870118,1.299501923,49.22591282,0,36.8685932,108.4041128,47.6111853,20.70838279,125.983764,55.67983944,78.66785838,20.38230908,140.227043,110.1842866,39.2700009,44.12328491,51.29042094,39.05887186,113.6387258,104.419718,266.0625061,55.32994282,224.6860117,69.55459191,225.8292713,76.38278871,19.23483804
SONPETH,129.0909091,0.290456,108.988736,101.7824462,15.00602842,1.224650148,49.60910135,0,129.3634849,71.00152417,109.1437698,169.5423152,126.6519766,86.20429316,115.7552985,40.04944942,94.54592509,104.2419242,57.87158027,43.34919219,75.58588349,38.37362849,118.0861253,108.287115,26.13947428,95.12867361,71.41722558,68.33433591,44.37347085,76.56717923,18.99987499
GANGAKHED,93.26203209,0.268267,104.6556259,102.525054,14.19176864,2.221917163,51.34306074,11.87321841,77.91098941,116.0086587,181.6611263,171.397684,139.3063121,50.32867339,159.8655352,61.01873661,100.2288742,107.7973454,243.7703829,0,257.4198485,36.11103248,117.7620467,105.2223853,32.79764226,112.5390158,62.84225853,58.18088506,51.13115577,76.74794938,18.91387406
PALAM,102.6737968,0.272926,109.565396,100.4800756,13.74737827,3.757085161,52.13406416,15.53779199,43.69611046,44.1989545,21.94425001,133.6244618,139.7649338,111.6843338,184.480773,42.27441883,87.44247463,112.8545048,244.3466723,61.00997419,59.10007351,27.0036645,114.825835,106.950237,49.05185297,40.16543997,36.55022993,40.07260439,84.75567714,76.95064738,18.97977977
PURNA,162.459893,0.28737,103.7778691,92.40184335,14.61848323,1.096300754,52.0723447,54.13166241,41.22939455,56.9069288,35.04001212,89.36520744,116.4381075,100.4801594,114.8229808,49.09287348,117.5506479,108.1218966,200.9948433,132.8442986,20.58970303,52.91847155,103.9573455,94.31458402,53.40322703,81.6265393,115.3985082,76.78428068,155.409391,76.95803122,19.16148513
BHOKARDAN,143.5294118,0.248598,108.8151871,102.238717,13.00093765,4.271368169,49.13617776,184.3752005,97.6900304,121.9479877,113.2155574,114.4896577,113.9097757,105.5072496,107.9279598,89.66485013,114.7455458,106.9871488,129.5659902,1022.985714,146.3573795,76.62504798,116.9237257,106.9076613,161.3321693,129.2676626,195.6426718,128.1812862,46.02889606,75.80911065,20.25249886
JAFFERABAD,27.9144385,0.251072,108.7162642,99.40339027,17.23455125,2.362677783,53.01639761,50.34244604,29.49487456,127.6388938,14.81236876,173.9504154,116.4910339,104.4687539,115.0823456,45.65637234,107.7823546,109.6945787,27.48900063,123.5451977,23.93552977,32.80945236,119.9325629,107.2042438,79.46400182,123.9390719,18.5035539,48.68821434,14.45307336,76.02062019,20.19204414
JALNA,122.9946524,0.264113,107.1871607,102.6915112,15.79157046,1.415346918,48.61175382,85.03791561,71.74428947,119.898104,114.0952729,138.4290093,117.5109402,115.3325407,96.7706335,71.9807672,121.7233155,111.9489999,115.1566243,133.5623759,54.98702786,92.36895372,115.7650221,101.7020877,130.8739895,82.69583345,65.01248668,70.18120986,48.82795055,76.03350058,19.81297024
BADNAPUR,62.78074866,0.251839,108.4697421,98.96838824,14.80308509,1.296725021,49.76303318,55.93605116,95.03904025,103.7714584,36.20801252,169.6553434,131.257503,69.23127482,67.39666155,80.32139578,123.1798338,110.4563466,36.65200084,54.90897677,58.50907278,36.45494707,111.5019292,104.6775445,126.9216696,111.8894399,69.90231474,86.55682549,64.23588162,75.74996433,19.91912572
AMBAD,53.90374332,0.2426,107.6959864,99.94905192,12.48907011,2.214083049,48.5375545,55.11946647,32.29365828,105.6650982,118.931428,119.9171558,101.7964211,88.8431369,53.62419553,47.21157723,127.001106,111.7630288,24.07795675,54.10738587,38.43661715,59.87126344,117.0204509,105.1254474,116.0058421,127.7838971,70.23246736,80.55470985,50.11102079,75.74716085,19.56684335
GHANSAWANGI,29.94652406,0.224256,109.9786276,89.68773375,13.2069841,1.836500748,48.5464293,65.09799057,88.993156,73.80297688,28.09242351,143.2924878,132.9547983,126.6928611,96.91007424,42.63885347,126.1000454,112.2950967,56.8737944,21.30089616,49.52178574,42.42601599,83.3451132,104.5530765,72.78491546,86.81077235,19.14160748,55.96346476,71.64238952,76.01128135,19.49560512
PARTUR,169.7326203,0.271186,106.3126733,102.347466,13.35511552,1.201078289,48.2630075,183.5401679,67.59242087,128.092894,67.89002348,161.0651995,66.65420074,77.89414756,51.79138918,103.0438959,118.6889024,113.0749238,125.9912529,411.8173258,69.81196184,131.009966,118.555786,99.26318874,186.2437543,100.0549799,131.0668401,101.4337799,41.40203307,76.23040965,19.49446986
MANTHA,77.00534759,0.335711,107.0080621,102.9254742,15.83137726,2.346097105,49.39041749,11.1377093,31.32199068,95.04730924,62.9197965,165.911409,156.8120611,106.5378387,102.798429,60.60580399,88.56957078,105.1644191,97.30619692,0,29.65463866,29.0349136,120.2141456,107.3288219,105.4831883,105.5675723,42.5745488,80.42890864,76.74198246,76.38567796,19.74237203
KANNAD,35.29411765,0.305187,108.8516778,97.94588873,8.987877173,7.591087724,52.38237667,106.3572804,96.93151264,81.11712593,114.0482853,125.2225213,97.05660433,88.57369688,79.64117911,100.0296108,114.9389295,108.3641671,67.10929731,104.4043925,103.3835089,84.71924319,110.314516,106.2535541,130.5746509,126.557503,191.1165192,76.19438864,45.80199306,75.1873687,20.27028101
SOEGAON,396.5775401,0.352183,104.2521343,96.98675575,10.32744701,13.74870675,50.23527892,30.32677472,85.28638427,97.52016573,99.93887356,58.21633715,86.97786343,86.11515044,100.2660016,45.83973126,103.8866068,99.12160727,59.61470016,59.53985433,57.67597536,125.1766255,94.36542937,99.15446673,179.5120523,111.9931373,75.79769068,109.4995985,126.2467252,75.57629625,20.54906891
SILLOD,114.1176471,0.292918,110.0881317,94.58946093,8.928754893,8.705710015,50.03246215,115.2880444,60.79096284,120.0105034,45.2286069,95.90141647,140.275194,93.99999244,128.2456668,110.3652766,124.5902899,112.5206795,176.2653475,132.0330358,62.12274903,121.0526868,113.9723685,107.4604958,223.6820662,109.9841001,70.62425153,178.399564,55.16440215,75.59611909,20.35063085
PHULAMBRI,741.1764706,0.2325,105.2166664,111.2147671,10.01291829,1.968176285,52.10730939,77.84914337,234.1345713,150.8430478,177.1376058,131.5089051,37.21217869,78.67950719,164.3846903,47.06842509,107.9410915,113.0871945,368.4092868,305.6788398,217.1470742,62.01099244,108.502003,108.287115,128.0025802,107.0092502,87.74881231,76.96418761,74.50037817,75.43319741,20.08153886
AURANGABAD,111.8716578,0.214358,97.06809304,102.9735213,14.17900365,2.400201943,51.78666507,143.6401314,73.7371864,100.6695942,99.82248512,93.48784403,131.970859,80.05428479,95.34745985,62.03311459,104.6024404,100.6030443,89.63804553,67.14412921,104.0675207,112.931086,84.46891907,102.9904626,121.463318,101.8792643,84.47274607,74.09076095,135.4975628,75.44489574,19.87891942
KHULDABAD,29.73262032,0.2562715,100.4411156,96.61019636,10.73514072,5.907641915,54.61529131,102.0454987,83.70167105,92.55292236,80.06685816,91.41538348,124.1625028,90.56272735,157.0426077,82.26373394,93.63331963,97.27982064,111.4418944,166.9529699,84.09780731,140.4008097,79.38172944,106.8237756,140.9412194,108.865401,60.01152616,114.044466,214.8429824,75.23081748,20.07955175
VAIJAPUR,43.95721925,0.2167875,108.9301147,97.36239801,13.08303249,6.456354716,56.50461331,83.39863049,28.42879476,112.5232681,60.67717323,123.4186348,91.91978749,123.6882059,110.1958854,119.1833013,108.5244018,110.8234637,39.74313344,163.7345994,98.0491581,69.17655619,100.2632687,106.9824509,107.7072314,66.26260622,95.86178527,68.43724907,108.8333838,74.82071093,19.95986855
GANGAPUR,134.0106952,0.1602215,100.5348106,97.95597578,15.0616002,4.967833609,53.70779042,129.227261,110.6057796,107.0143165,59.51398162,125.9759953,109.8695617,79.93873821,64.78044526,90.0218651,87.98559559,94.8809135,71.17687663,55.15410613,38.46781571,129.382513,94.5168248,106.3534165,93.12187713,60.8629371,39.65047264,85.49418589,164.5327548,75.06932463,19.78554832
PAITHAN,50.26737968,0.211703,99.95702438,105.8845515,13.60322788,2.481266741,51.6280179,72.10506595,98.31624854,103.7714584,104.9209454,105.6990371,130.7447784,116.6370435,108.4224836,93.13582898,91.42253292,102.3625626,91.6300021,25.73858286,72.30524619,85.4412822,92.42252136,100.9551749,137.0960969,91.17913493,73.24323419,82.8375869,122.3241886,75.43533292,19.58878893
SURGANA,21.17647059,0.813277,108.0156223,66.79264736,0.373334592,98.14807169,50.74570601,19.87201817,6.209447276,73.73235202,12.47357369,23.3968395,116.5773875,28.25941948,87.57979887,20.02472471,25.93259659,106.4470418,2.893579014,13.00475766,17.63670615,20.14615496,117.2273171,107.7171828,39.20921142,93.76969256,81.80518567,44.41731834,55.14988521,73.57294204,20.52207283
KALWAN,71.22994652,0.6618195,109.4752929,107.1805846,3.403691652,68.94539311,52.51388998,33.12003029,31.04723638,102.4060445,136.4297123,124.6136017,132.7686914,46.0724688,137.4701156,75.09271766,124.5980227,109.7547183,28.93579014,48.76784121,160.6200024,50.3653874,103.0569821,105.4374541,55.54638285,120.2698231,19.47742516,108.9078479,185.4177175,73.93083725,20.51906559
DEOLA,88.02139037,0.224055,106.4975649,88.27042013,9.040146137,20.83765793,65.52675682,100.6848921,123.8784732,102.7337438,154.0486351,104.3702492,118.1317527,90.90372459,83.1978701,213.0630709,117.0208421,114.2651862,76.96920176,148.2542373,153.1873905,87.49187297,105.2469429,101.7898881,129.129003,123.9390719,170.2326959,142.8187621,79.4919035,74.23137959,20.44822979
BAGLAN,40.42780749,0.368952,109.0112358,112.5868512,4.961185981,43.15513135,59.84513613,130.9485591,102.2943626,134.9628794,82.19580352,159.7617817,130.8781461,111.3517133,67.43821783,129.7555861,125.4939058,113.6046937,79.4479787,28.56536364,113.451644,91.66417327,114.5987684,107.0352408,77.51185148,127.1629206,113.3743765,105.0689789,39.68329392,74.15912099,20.70676299
MALEGAON,101.2834225,0.3605995,107.8100349,92.43018969,7.783515376,23.17316651,59.74444507,132.9466005,157.859892,115.0986246,114.7437017,134.7503218,113.2327051,100.533289,131.099339,160.7618744,131.2038723,111.8511329,139.3808483,87.00366038,161.8176661,146.3332382,113.7618446,105.2367737,171.3792293,136.3766196,114.6699115,132.5782362,66.15843441,74.54693766,20.59193165
NANDGAON,34.97326203,0.40602,109.8144083,110.1437693,7.444947242,21.05936734,56.64767278,63.5636945,241.321701,88.04851016,116.7035114,105.4244942,132.5833364,79.473035,112.7208793,103.7644826,141.5323848,114.2651862,88.85333536,49.91725161,207.9248041,115.9930134,110.0185333,108.287115,125.4166695,118.9314326,123.357026,88.52402607,40.14742601,74.67926503,20.30369975
CHANDVAD,37.32620321,0.283756,110.9349635,98.59610647,8.669029206,20.82723697,64.43644659,44.16004039,67.26901216,131.0797369,179.3076218,161.0651995,135.2873386,126.8970361,113.0257935,153.5228894,141.8188876,113.26286,72.33947534,86.69838438,134.374904,95.93407124,114.8655946,106.387341,78.41842285,107.3595031,94.14088827,116.7378239,57.05160538,74.20971174,20.28665071
DINDORI,107.3796791,0.523737,110.9349635,104.5200267,6.233905274,55.57459559,60.32656979,124.3023359,178.4257844,101.8497647,166.4105626,145.5552173,133.6881975,101.4070031,101.5358939,180.8405694,125.4609419,111.4438235,74.66148319,183.0299226,227.535283,114.7655741,101.9834718,103.6080421,58.24907541,140.5790399,111.9350792,138.2504852,124.9031031,73.77867282,20.26201542
PEINT,41.81818182,0.523737,110.9349635,83.72215947,0.51486173,96.4435321,53.336916,17.24056371,90.90885995,106.6145121,20.29091611,129.7347086,68.55057948,70.68810217,94.46314412,62.5429758,95.97058971,111.9172714,26.35931567,236.9359957,32.78839695,22.47222765,111.4833021,108.287115,17.00856203,91.25650843,45.6252014,73.36580243,193.0376237,73.51639188,20.25739919
TRIMBAKESHWAR,10.90909091,0.837258,110.0403267,112.5060997,4.460020337,83.6263406,48.92994472,10.1496867,7.135856749,110.4663912,9.556366942,96.63911967,138.9318328,80.07647203,136.9253853,52.16117807,152.7330601,112.4221993,8.867419558,119.5598688,19.30284659,22.04936315,121.3932294,105.6672654,16.02096811,117.4422657,11.93777671,138.7352344,11.65570433,73.45796208,20.0171637
NASHIK,66.73796791,0.290446,108.0904772,97.32528314,7.90347148,39.25250642,63.64641014,209.7601918,158.8185553,115.7450882,121.5373847,126.3742334,79.93245375,72.8990924,87.70772882,141.4567092,138.1825059,114.2651862,63.4361553,126.7130233,233.2179824,189.2853021,95.70756589,105.5105223,50.9384627,144.9928245,80.656517,141.4871186,74.11832494,73.75729691,19.98252118
IGATPURI,220.1069519,0.566563,109.1311429,87.59380359,6.105642281,48.9655312,55.14606048,92.08984032,103.1121631,124.0195478,163.7790367,103.7102748,133.3917713,88.99573695,117.3360854,83.51775427,123.9309304,111.4782304,71.5160992,200.8865004,202.3817151,88.91450505,114.4204806,105.6459658,96.90731929,83.12986531,141.4092737,124.0295975,155.6936765,73.65687336,19.74299228
SINNAR,138.9304813,0.2602235,110.9349635,104.2817972,6.984570833,14.84643763,63.9302108,186.8176709,80.65004763,115.5268189,81.00514165,144.9586795,132.0265899,136.0864277,85.85149881,172.4003643,145.5542958,110.6943991,150.3304722,115.8236229,149.5970611,115.345731,108.0387405,107.4411219,81.48164249,131.9273324,135.885474,93.82624638,50.81158605,74.08001769,19.81851766
NIPHAD,75.72192513,0.234966,109.315475,99.29665647,9.156673105,21.1830881,66.33590047,183.7315549,228.2085185,105.6650982,118.931428,132.6142664,92.21558149,160.1638919,60.46808275,183.2920057,131.4967204,113.4311337,128.4157694,198.3937482,132.7810411,211.5451308,94.68830379,105.9158643,130.5065723,123.2605733,156.6724272,137.416858,13.18711073,74.10740526,20.0783965
YEVLA,33.79679144,0.2282335,110.9349635,102.6267629,9.827851075,12.43132116,63.00976504,110.7533813,54.27056919,102.1111151,82.94926505,126.790525,77.44192677,112.7337193,76.35874317,115.6628099,128.1070272,113.3510647,61.57536141,39.53446328,202.9732925,87.49187297,104.7574223,103.9556304,79.46400182,95.43308537,142.107294,88.287962,141.640119,74.51275116,20.08262196
THANE,100,0.116121,110.9349635,102.6267629,4.941432503,4.69180055,57.27039091,100,100,100,100,100,100,100,100,100,100,100,100,100,100,100,100,100,100,100,100,100,100,72.97133745,19.17093682
BHIWANDI,234.4385027,0.277005,108,97,3.75153973,27.13275178,58.63580719,109.9180045,78.56713311,97.20077654,91.84962288,65.83276275,119.6506714,96.03935023,30.40088189,44.85888112,64.54838454,106.780567,33.61100514,86.31978881,29.26614994,109.8424169,104.7445964,105.449898,145.3080819,97.41935783,161.6030908,96.38423799,85.20370761,73.08941357,19.37119273
SHAHAPUR,74.43850267,0.478261,108,103,3.587613448,40.05784883,54.82736145,151.8953113,48.3105704,90.57638072,150.6775443,59.98290187,94.76565411,101.319689,50.67090239,60.67836841,57.74054711,101.9521273,21.3276729,159.7567212,61.90223217,84.85203197,100.2251361,104.0863217,53.51832019,91.48519855,146.752324,85.34428375,174.4336441,73.42578775,19.51108357
KALYAN,131.3368984,0.230769,98,101,8.144297862,5.24873584,69.97662659,102.4410239,150.9040094,92.30833218,75.78421226,65.17522025,141.1781282,68.43553813,41.36767618,70.78507339,96.68184632,103.6358665,25.57116338,57.46288267,139.1600568,158.960525,91.07361207,103.250505,57.75000132,82.86623994,55.94097691,60.3884829,168.0589926,73.20437699,19.26586871
ULHASNAGAR,100,0.23,110.9349635,102.6267629,8,5,69,100,100,100,100,100,100,100,100,100,100,100,100,100,100,100,100,100,100,100,100,100,100,73.18635091,19.20243253
AMBARNATH,91.12299465,0.2433375,96,104,10.20950156,15.05627505,62.8895232,166.57427,186.5117068,98.43028039,126.3407924,73.90050328,127.8795526,77.66938056,28.40616772,33.57086201,81.5160665,97.46148231,40.42500092,109.0104686,147.8370957,104.5399217,93.58483299,97.13991197,73.03676638,102.5231293,59.86443909,85.92037824,164.7225273,73.25226883,19.1480097
MURBAD,96.25668449,0.438931,101,103,5.377863861,26.8520942,56.26904093,43.18592185,57.83308738,100.7193567,49.37456253,92.84935028,127.8795526,73.90940373,45.33906775,44.76114935,104.1594183,106.9835812,24.25500055,84.78592002,58.66551415,88.45685686,106.782694,106.1638382,104.6860318,67.5893223,25.39703477,66.82696086,164.7225273,73.53343699,19.27949187
GREATER MUMBAI ,100,0.2,101,103,5.377863861,26.8520942,56.26904093,100,100,1000,100,100,100,100,100,100,100,100,100,100,100,100,100,100,100,100,100,100,100,72.85165406,18.96146956
MUMBAI SUBURBAN,100,0.2,101,103,5.377863861,26.8520942,56.26904093,100,100,100,100,100,100,100,100,100,100,100,100,100,100,100,100,100,100,100,100,100,100,72.88460619,19.13150327
URAN,30.26737968,0.095893,91.56536668,104.5133852,2.445281191,5.835205003,68.21455178,359.5889003,210.6776754,121.0667015,122.2608215,104.3088911,59.89925732,167.1832541,24.19055669,96.62724304,102.6498615,79.804257,61.08666806,117.6620931,75.9858088,216.9937326,101.0122007,101.4117426,94.60000216,122.9554285,123.357026,133.9569918,108.9715849,72.96154681,18.87679727
PANVEL,75.82887701,0.122549,104.1889184,101.5399391,4.690724304,14.36922967,63.15043565,289.1289131,221.2115592,127.2602682,132.110316,83.57977918,106.4250024,85.77461639,17.74489672,74.55150888,107.1581325,106.5445655,33.43256833,16.69529699,116.4431178,169.9588749,109.149878,107.5554453,87.24932632,128.7542723,167.5321772,96.49916355,109.8628887,73.13223556,18.98455292
KARJAT,51.55080214,0.215587,107.2164731,109.4541536,3.722597546,28.99991226,62.00754775,126.5592219,100.5132597,113.9167127,11.58509288,52.90856831,127.4077718,38.60273271,49.75166819,74.39353034,138.4912936,110.4350682,12.28558687,110.4314617,45.46413476,51.93302516,114.8595973,105.2623352,74.91368886,66.64321604,22.74179809,106.9871377,161.4868532,73.39541509,19.00257274
KHALAPUR,59.67914439,0.205088,106.3126733,98.1774763,4.366816143,23.8941704,60.92953637,209.7601918,164.6797163,121.9314636,143.1862313,64.42607978,113.4830495,107.1597078,39.39387871,79.26453531,87.25238229,99.98203788,59.55950136,82.36346516,67.81733435,191.3884721,101.9834718,104.6775445,103.4687524,108.4466879,101.7695465,97.37642868,114.4201641,73.2706858,18.83102855
PEN,14.22459893,0.228571,94.16572481,100.9749697,1.458098156,21.03894533,57.65959193,102.4410239,84.02609613,102.2631523,129.1776345,71.91748441,105.8835962,77.20507545,49.33418668,72.99710693,65.34976649,76.39823493,12.78558169,28.73144133,52.88082159,149.4228935,98.9002506,100.1026237,40.42500092,83.76695994,60.24412898,81.1470239,132.3464567,73.11197703,18.71663555
ALIBAG,74.86631016,0.189227,80.03527045,99.87983924,1.469038107,17.47111543,70.6328747,189.6462008,142.7605801,122.2513072,131.2145908,45.01000094,101.1401992,131.5747955,28.8725324,72.9668051,80.85434298,71.4809612,27.61452118,33.84799938,115.8523359,169.7901644,87.73372646,94.44218704,61.23082332,103.2825599,150.3941824,117.0888564,160.0397393,72.96238505,18.65295356
MURUD,20,0.289109,103.3366783,110.6193018,2.643932184,19.4270136,67.64798987,172.4056371,145.4541759,34.11664386,8.116366444,52.95294229,146.0913989,124.7310727,34.73274436,41.6953172,50.62184952,98.61242093,0,33.84799938,6.55767939,134.8333659,113.997963,105.3203447,27.21369925,133.7013961,25.34733411,62.24977176,49.49682659,72.96416408,18.40787878
ROHA,86.95187166,0.34598,103.1042602,99.86069592,4.077645585,17.28156961,62.27586676,125.8561151,102.3645647,119.9475975,139.4105295,60.25733344,116.7805725,97.20729431,45.23657643,107.4267584,108.6880887,101.4943712,58.21200133,87.20837488,137.9812893,77.19871144,108.7023829,103.1912508,73.03676638,112.0919547,89.25243646,70.64564433,144.5307336,73.1351432,18.44496273
SUDHAGAD,60.64171123,0.389714,104.3447676,75.00132118,4.715810841,32.32087813,49.43082644,124.610015,93.44910752,129.457463,140.7908318,63.15031583,129.9579238,164.1678813,154.0837339,71.57352099,68.60263022,93.90109357,43.54693169,97.85758237,80.57505072,81.21151575,98.14646993,96.4934688,29.50396107,119.6441536,106.2580323,38.56492225,164.5646967,73.27899997,18.58512253
MANGAON,79.78609626,0.2959775,103.0110375,102.58678,6.176724932,9.24878436,63.49226318,124.4730809,82.65047267,124.8678538,94.40850418,55.2223541,121.7016683,116.1735567,37.56966353,83.61972955,84.60153422,107.9868792,33.2284623,40.72918607,176.2286258,96.14491535,110.2766333,104.1222259,32.74615459,139.6017019,65.06744229,65.98768976,117.1334242,73.30257314,18.27152334
TALA,88.34224599,0.3393885,109.0222917,99.32351141,8.242448115,11.30259238,61.17426901,43.39866038,71.1945248,144.9222091,183.8776812,69.98005218,121.6394963,85.32872251,87.77181953,72.15805973,132.7368899,104.4147391,123.2265545,42.60179232,181.579881,47.14001776,118.1601605,108.287115,17.12586246,125.5417323,102.0885732,67.15615771,68.52750302,73.14213735,18.28101845
SHRIVARDHAN,187.2727273,0.306368,102.6148412,104.8089739,2.61353196,13.64680404,66.68274158,110.1241007,143.7875135,118.6886055,181.4515173,53.15151582,98.44312725,95.17266308,52.84077913,118.896803,113.5564093,98.55372306,13.74450031,370.6355932,227.3875328,68.35302576,108.6123975,96.10481455,24.83250057,127.8121679,143.4025427,48.68821434,171.6302462,73.03053607,18.10525327
MHASLA,70.26737968,0.313717,100.1120402,105.0537421,5.854483926,8.229322186,63.08896693,61.39322688,75.53565437,125.2850534,111.9959589,65.99744758,118.0517176,111.2121224,77.51746903,78.87787904,84.49836162,101.7238852,13.4092686,90.39892518,134.2724841,66.68587879,113.4255199,106.9665404,18.17012237,137.9200038,72.20899083,35.62552269,136.599169,73.14256246,18.11930221
MAHAD,88.02139037,0.28275,108.5233338,106.1348193,4.528084632,6.207765104,63.45203946,75.24006881,123.4296381,139.5838911,117.532926,110.2946475,76.68576942,122.6731692,56.06787506,167.4894094,116.3179137,111.7811604,62.74663187,40.28647752,254.9654258,71.32489644,118.3895086,105.9330473,35.08940298,117.8768347,235.3169355,81.1470239,86.40424294,73.45162017,18.11572406
POLADPUR,112.6203209,0.3665425,96.74560768,105.1686283,6.37145749,5.893218623,58.65366227,87.80659194,92.60018758,119.4578416,158.4578984,56.18553469,108.745315,92.25039275,64.95087128,79.63320756,89.52022807,96.99254173,31.96395422,57.46288267,139.1600568,89.01789401,113.8420151,108.287115,11.55000026,117.0935999,94.66934554,60.3884829,134.4471941,73.52574044,17.96924793
JUNNAR,105.2406417,0.207715,109.1360181,103.2336958,4.401222502,21.13175057,68.19857818,190.484931,133.9226737,96.75987337,102.4855784,100.295735,111.7462526,120.5892072,60.4394502,150.1313144,114.8568721,109.3239889,166.4198957,146.9186135,119.0307427,153.701939,95.91958974,105.945772,59.06108243,88.76717312,106.0203629,143.8714802,130.8589075,73.9521227,19.20378487
AMBEGAON,56.04278075,0.2230885,109.404826,103.4419666,4.02909312,22.81064598,67.10351306,173.5946415,158.6620838,115.9377673,136.8867182,127.963524,110.8899594,120.9873879,63.71814007,131.1964722,126.3655192,105.5967927,250.2446954,153.3664524,174.9769763,154.6192583,99.59213526,106.7934996,133.5817272,99.36494558,170.9983602,149.9820855,92.20064043,73.85839121,19.0412244
SHIRUR,46.73796791,0.084571,105.341604,101.7332589,7.77940829,3.274116725,65.17408739,274.9797473,173.4992621,99.41131309,134.431582,125.0623902,107.5429121,89.94781065,45.26657646,169.4529225,116.4515236,108.5039163,189.4200043,228.4028866,205.1616838,156.2354874,77.13035686,103.7372362,112.6852967,98.94295657,167.9314136,150.019708,118.4180381,74.25692277,18.74130606
KHED,58.5026738,0.3006585,108.6357932,97.98805855,5.5417698,14.03538852,59.99466622,189.1102248,129.8997066,106.4598382,125.8667604,138.1989483,111.3648503,78.89323259,61.53350315,132.080179,138.0188553,111.3049482,113.9440441,76.81566699,168.664873,144.4975881,93.84593057,104.359603,54.03963854,108.3664165,97.790803,136.2260919,127.3068638,73.80082453,18.8702121
MAWAL,81.60427807,0.140097,106.2393036,96.46665657,9.000655189,10.7441852,58.70975757,133.1810742,138.8912083,127.6553655,119.1259286,97.15043777,127.6114613,69.23950488,56.44059058,80.52270253,105.0939058,106.405676,34.90666746,78.44139539,98.78155144,92.58399256,67.34146712,101.9846903,57.81111243,127.8736456,107.6926418,65.26109858,99.41267393,73.54510242,18.76603599
MULSHI,46.95187166,0.100592,89.04983463,103.6726217,10.19996836,4.818638949,59.39054816,162.6711692,146.4711458,73.06357785,78.5962424,99.92616456,121.65874,49.65003128,35.21836003,165.6467024,101.602414,93.27770298,18.70000043,33.61774088,244.2400997,96.71720651,83.25181375,101.6572916,64.19285861,120.1450187,135.9444776,66.24246849,186.8084312,73.5486492,18.51946143
HAVELI,86.09625668,0.0702985,104.4093774,85.68273341,13.58498833,1.98502038,68.88818885,423.0457651,190.8491883,117.7239234,191.6894781,92.57865246,110.3004227,166.5841533,24.0694727,153.4667978,131.9783934,107.5437046,138.6000032,228.4028866,177.002237,211.3774242,97.69845202,98.27738167,87.64411965,122.3768147,149.2723676,125.4710285,39.47267936,73.91914942,18.5132764
PUNE CITY,100,0.07,104.4093774,85.68273341,11.67695645,1.832137494,73.19859402,100,100,100,100,100,100,100,100,100,100,100,100,100,100,100,100,100,100,100,100,100,100,73.87623049,18.52795987
DAUND,56.04278075,0.102178,109.857925,98.42597734,13.02535913,2.485941582,61.87734076,219.9427254,143.1790027,87.6516202,123.6760887,146.3660453,124.2486072,96.91214389,38.39595736,121.8980815,122.5818735,108.7183325,85.4027204,95.95743514,185.9070274,201.7409692,68.91310331,105.1331213,197.6956356,99.27158672,50.30092323,126.0536294,31.57224764,74.4548515,18.45187025
PURANDHAR,49.51871658,0.087871,109.9172115,99.26424615,5.966478565,2.776046492,65.47446174,173.1964887,216.4761436,128.5242833,133.1754255,148.9483679,100.8515218,112.7448937,53.31275323,205.9423523,132.7856007,113.2168817,131.1401865,204.0195926,276.6859405,125.4183959,99.92508984,107.2936552,95.68486457,129.3400865,81.48354011,134.0042596,82.87312709,74.11028191,18.29412381
VELHE,120.4278075,0.3687205,87.04127903,70.9613292,4.833443393,3.7273461,58.58877536,96.81239624,38.57022058,93.39431256,273.4591156,62.44373887,84.56012213,180.2802947,105.903822,64.38719176,48.56128064,91.41214892,4.22907702,38.013907,7.364778391,58.88876065,94.1385894,104.9552038,95.50961757,126.3225156,5.6934012,32.45880956,77.82424119,73.61266444,18.30094577
BHOR,130.1604278,0.185218,101.3130534,102.2977209,5.775871838,2.993504828,63.42842643,83.47599471,106.8436783,105.6245202,139.0548904,84.80575808,101.2892721,97.05535578,97.71082769,118.4115099,101.3405521,108.4353297,42.07500096,88.24656981,117.2352479,92.06734081,97.40462209,103.3147475,40.54285807,130.4205795,88.74153401,56.30609821,125.3582894,73.80159657,18.1728377
BARAMATI,66.73796791,0.1170655,105.1969481,102.9868591,14.00464817,0.983590894,65.42707155,325.4899529,180.5289736,106.0079122,191.5392512,111.6348451,114.5674326,87.08267126,69.79995082,170.5554139,134.0642588,106.3848285,156.4029346,149.1062731,111.4240179,240.4140906,97.06013183,102.6860573,209.7918151,126.8772827,162.7036636,190.2757802,77.87216252,74.46001837,18.20373388
INDAPUR,55.61497326,0.139288,110.9349635,105.3767923,15.88596128,1.236062494,65.32863891,232.7476101,195.9590981,115.143673,160.2982373,127.0870615,103.3877592,123.6508934,54.23526533,148.5395675,134.9915987,111.1346331,210.8745254,304.6319944,62.2979542,172.2870786,110.6450818,108.287115,129.2650714,129.4569073,238.2649406,113.3835128,96.51881185,74.89090641,18.11543124
AKOLE,89.73262032,0.19,108.0156223,103.3008168,4.42065384,48.13234293,57.44567793,86.11207876,65.1991964,111.4177764,123.1765402,93.587358,112.2597065,115.0452629,152.4699436,152.1879078,114.2655037,111.2582076,107.0624235,130.0475766,118.4178841,83.46264198,102.4128759,104.2975897,96.71605484,86.43119488,97.38712579,140.0853886,119.8083713,73.90262265,19.51370148
SANGAMNER,145.8823529,0.267677,107.0651392,96.2921819,8.420460933,12.38098807,60.83738133,190.2476159,123.4669168,120.3628253,141.2342138,113.4947801,73.45078293,108.9964125,77.8600606,170.3265828,119.0619033,109.6148588,115.0702352,186.7543687,125.2440511,197.111051,91.07361207,98.84347124,103.9500024,86.46911994,142.0040183,149.0840672,128.1449819,74.24414288,19.49269399
KOPARGAON,82.88770053,0.23765,108.1615894,94.07073288,12.60862049,13.79084995,60.87316746,298.9082734,162.2218101,99.2314571,148.1236876,137.7107455,88.18863483,83.60101442,103.3215401,204.5025011,140.501998,109.9802417,178.6785041,30.88629944,125.6615313,205.0590773,93.31487674,102.8727592,173.827504,89.08120793,111.0213234,154.1793454,99.36487938,74.45428526,19.87529582
RAHTA,80.21390374,0.2154315,110.9349635,97.18841132,16.72808282,6.801171866,65.96392174,455.685934,198.3276048,131.5034861,194.0931079,146.6248712,70.72063739,96.6459076,65.88489485,229.5938264,140.7011033,114.2651862,142.184486,213.0089616,132.0580953,273.412103,101.2801376,100.8190381,214.0732808,104.1729268,108.4691091,223.853859,87.21682203,74.50922063,19.67827406
SHRIRAMPUR,149.197861,0.264871,106.9730005,97.52112547,19.5612911,8.87053648,63.16519938,337.114594,147.4743728,111.1837054,153.4138193,96.63911967,90.82550431,86.09240505,105.0619348,197.0289878,129.2288435,106.1033871,166.8975038,132.3698547,196.6132803,234.3532312,113.6387258,104.419718,203.9812547,105.1268914,165.2103027,185.4789118,96.78397342,74.70715066,19.6302876
NEVASA,120.6417112,0.214091,109.2282717,98.2301837,14.71680607,5.280175726,61.16832921,154.899834,102.0976427,112.5521203,107.1048203,118.940455,102.2294014,105.6357067,87.55379398,152.1879078,111.335619,108.9914083,291.8063144,38.013907,69.96539472,159.8409218,70.60394205,104.9552038,152.8153881,76.2701981,45.5472096,137.3257328,94.5008643,74.95916184,19.47256
SHEVGAON,66.09625668,0.210927,109.9532381,96.65473502,14.71995898,1.905060355,55.53609116,122.5148023,148.7794558,108.8222816,115.3529603,136.8341518,111.8011917,81.79936202,84.34048958,144.7805317,106.2834849,112.2427935,199.4777037,87.46562672,118.6185546,101.6221976,101.8029701,108.287115,153.8296495,95.97052028,94.97399347,137.8781291,79.93956507,75.28698139,19.36399681
PATHARDI,117.1122995,0.247922,107.5985736,86.56812595,9.788304793,1.689057506,54.79604973,113.5543896,79.83575069,105.3319315,158.147095,159.8541829,115.960576,105.7171259,110.3407644,123.0090232,107.6665841,110.8286392,152.9463193,18.57822522,133.1751281,82.22920392,107.6577402,105.0303596,115.760529,88.52790851,52.86729686,90.29894389,124.9701832,75.15957575,19.17166622
NAGAR,87.05882353,0.141816,107.9367212,96.86027725,14.11229491,3.539407962,63.67318447,283.4597187,164.7461462,120.5992625,152.1270305,125.3696688,70.95000162,121.3354452,68.82149472,202.2316793,123.4572659,113.2357701,198.1189234,89.04158396,194.071863,216.7591447,98.12463778,102.4337574,174.4986526,99.09542912,116.6890787,169.6045905,81.37991759,74.74611849,19.07599033
RAHURI,157.2192513,0.1903585,110.9349635,95.08504996,13.16375048,11.8748839,61.93640791,209.7601918,172.0534349,103.7714584,172.8109689,108.7190096,111.0903346,93.21643807,68.31445158,182.3084312,118.6889024,111.8846614,154.6256285,102.9543315,159.5701985,142.402137,76.48760388,104.9031426,144.8562533,124.2618299,123.357026,172.4374258,82.80406615,74.61621846,19.40052192
PARNER,101.0695187,0.155144,107.5476363,103.3127683,6.972392739,6.220296389,59.81404033,172.9320666,101.3182714,103.3753841,128.9015297,101.8030421,98.94411009,81.52212142,64.82319523,182.9740113,121.0641497,111.6484262,176.2653475,37.7237245,124.2454981,137.7496092,90.61737498,108.287115,94.78053652,92.24472909,93.22401202,133.799673,135.1527853,74.40638821,19.0783524
SHRIGONDA,78.28877005,0.1618535,109.9786276,106.2771351,12.74500511,4.666814117,59.09260683,368.8886132,142.3890496,110.0335292,209.416248,149.9572547,90.52241586,54.74389504,51.92036577,180.3951493,140.7011033,111.310052,80.57120874,170.4071693,82.53630956,245.1280924,96.00513039,107.3536054,218.3547464,97.4951751,197.7966107,167.8903943,112.135914,74.66128993,18.70334906
KARJAT,147.8074866,0.215587,104.2406122,90.68642862,14.17685035,1.465201465,56.8626351,151.8953113,73.7371864,88.56357226,117.4774074,79.97720249,120.2250836,82.28890707,96.9644881,137.7562958,120.7905698,114.2651862,127.9660374,85.20358465,107.2972024,122.5640462,86.5101175,104.5530765,128.4439685,64.1064165,76.56642993,114.7251028,124.59546,74.95606469,18.56516397
JAMKHED,90.80213904,0.248129,108.1264834,97.51445207,13.3198781,1.12734495,51.61747344,143.3803843,138.1405517,122.1613371,67.49940194,134.5607995,103.8429612,89.4375741,133.6845049,115.5857527,97.45240018,108.4796071,118.3070913,31.27726525,30.29813895,117.6710317,94.49607771,106.916392,88.01392606,86.28669563,32.79110818,86.28291149,77.75387569,75.34841564,18.66024625
ASHTI,115.5080214,0.121302,109.0332212,111.2964888,10.12886654,2.200444665,57.90638267,86.30133607,242.7006821,141.4256733,54.17094861,108.235814,139.6954853,118.0845794,105.4039417,106.5315355,106.4625707,112.9592983,100.5312023,56.47780468,82.06467351,46.87064623,119.5829053,108.287115,170.2800039,92.06902485,23.26161062,33.38620412,148.6601832,75.09140367,18.90742665
PATODA,158.0748663,0.296188,105.4431336,100.7306851,9.858411749,0.903414587,55.24507404,49.84400598,67.16654603,73.97569312,61.5959889,130.1279235,154.3250345,97.8275545,159.9818903,94.17568551,83.84765916,110.8711707,190.5178261,48.92879118,23.69854433,48.72690945,92.08804586,106.1428157,108.1811906,87.43226607,54.96105119,54.63363985,143.0997363,75.45766237,18.85768167
SHIRUR (KASAR),41.06951872,0.084571,109.7548043,106.3188256,8.24059168,1.04601697,54.80256574,66.94474208,97.270331,77.8285938,104.0017381,143.9306038,139.6356415,114.7397253,104.4155122,93.093667,73.71133673,109.4028378,193.0078768,78.85863686,71.29732273,52.35550909,97.64374964,107.1351244,126.8042582,110.4244391,43.30618998,69.06129693,203.726832,75.46073138,19.02690014
GEORAI,83.52941176,0.215645,105.8668687,96.41131455,12.47639716,1.198499908,53.92318019,63.88635285,49.4076579,61.63076463,58.64795753,117.7329377,108.2707829,70.38279611,82.80711606,65.66483331,104.7341227,108.4649229,94.88589049,200.6825547,114.2101421,69.39393478,114.3043177,103.3399879,153.7850289,103.8068369,99.56226972,103.8022844,56.85853735,75.72514177,19.23882852
MANJLEGAON,63.95721925,0.243124,109.1311429,107.8484017,16.3463408,1.045069218,54.63697593,51.1610224,100.7142058,96.17842486,137.285369,144.5658376,137.3935245,99.56735727,120.2896924,74.2380038,105.1535167,110.5492451,44.697562,0,54.48738485,71.13160404,116.410402,106.5263489,80.75609941,96.98484286,27.07837156,50.13962452,38.18901499,76.19738364,19.15607006
WADWANI,76.25668449,0.194562,108.4137143,111.3704629,14.26811883,0.908935394,53.69329731,0,288.245365,74.29093045,87.52763358,188.8855521,160.3429724,178.5316627,87.4106724,77.82336194,115.4810942,111.6682501,87.465002,56.15690806,54.3989313,62.13911432,119.5987988,105.8260442,79.01250181,126.755869,33.64282527,110.6550326,8.211973502,76.0512982,19.00337791
BID,52.94117647,0.189547,109.0056598,104.6314353,12.11275206,0.958068752,56.62533504,54.72005005,61.55452082,78.50536418,47.65718644,124.3703453,144.8112669,127.0354534,130.6816588,71.13130473,110.4601771,112.2779655,124.2980898,75.20142471,77.00996535,45.17243441,118.6555525,105.9330473,45.34630538,103.7316145,35.39810311,62.09511394,81.69128423,75.77494008,18.92651167
KAIJ,25.24064171,0.275194,109.0056598,104.6314353,15.4794302,1.389305957,57.84493073,61.89645005,210.3323022,131.4154944,48.56514347,186.9412479,143.8991068,140.3534411,135.2147756,115.3883727,137.5676423,113.3285863,202.7877096,81.01324442,66.70557478,53.78598748,121.3770501,108.287115,85.48893638,105.3990058,78.86760679,93.11953562,56.27221187,76.04215325,18.71526303
DHARUR,22.13903743,0.278177,109.2282717,102.1904489,16.62257973,3.266694856,53.47256652,19.36247925,13.61301903,105.3679424,0,181.3841939,148.9267823,132.2619809,139.9670128,87.80071603,151.6059493,112.5072602,42.2907702,76.02781399,36.82389196,58.88876065,118.6146226,108.287115,15.28153881,66.73642334,11.3868024,54.9302931,33.35324623,76.18282357,18.88601242
PARLI,15.50802139,0.289817,107.8246374,112.2499826,16.45747657,1.082386755,57.67856952,11.76225375,286.6791546,148.3834872,235.3366999,177.0211912,27.6008768,145.5077288,27.71132629,60.44846805,120.877407,111.0614893,102.7626192,0,80.53075437,30.66303959,122.3801662,108.287115,23.20794446,117.2787947,89.92381335,51.57007126,0,76.39545785,19.01078371
AMBEJOGAI,56.04278075,0.2230885,110.9349635,108.8245498,16.37674132,0.725318463,62.26006517,107.8766701,176.9692474,105.2539078,169.2842144,156.4633366,142.1956283,156.3319575,134.1270435,90.58804035,129.0455402,113.1769463,188.4960043,164.7269303,100.3012676,104.1569916,122.3801662,108.287115,42.57000097,109.1844205,84.58767498,120.5612926,72.26536682,76.46327628,18.75373405
